stop_id,stop_code,stop_name,stop_desc,stop_lat,stop_lon,zone_id,stop_url,location_type,parent_station,stop_timezone,wheelchair_boarding,level_id
1,7978,Millwood Rd at McRae Dr South Side,,43.704652,-79.367698,,,0,,,1,
2,155,Bathurst St at Horsham Ave,,43.768449,-79.441504,,,0,,,1,
3,1514,Royal York Rd at King Georges Rd,,43.650225,-79.512691,,,0,,,1,
4,2593,Finch Ave West at Driftwood Ave,,43.757924,-79.513523,,,0,,,1,
5,1231,Lawrence Ave East at Wanless Cres (West),,43.727149,-79.392116,,,0,,,2,
7,4090,Kennedy Rd at Huntingwood Dr,,43.79502,-79.293198,,,0,,,1,
8,9236,Shorncliffe Ave at Newbridge Rd South Side,,43.625815,-79.542151,,,0,,,1,
9,8611,Warden Ave at Tower Dr,,43.754307,-79.298221,,,0,,,1,
10,9248,Thirtieth St at Alhena Ave,,43.602452,-79.532974,,,0,,,1,
11,423,Birchmount Rd at Harvest Moon Dr,,43.823801,-79.317854,,,0,,,1,
12,3388,Brown's Line at Woodbury Rd,,43.599389,-79.544276,,,0,,,1,
13,6713,Pharmacy Ave at Huntingwood Dr,,43.781783,-79.32034,,,0,,,1,
14,6743,Pharmacy Ave at Rosscowan Gate South Side,,43.784997,-79.321745,,,0,,,1,
16,8377,Underhill Dr at Broadlands Blvd,,43.744031,-79.326011,,,0,,,1,
17,4629,St Clair Ave East at Santamonica Blvd,,43.712912,-79.276699,,,0,,,1,
18,1999,Driftwood Ave at Finch Ave West,,43.757895,-79.513233,,,0,,,1,
19,6946,Rexdale Blvd at Martin Grove Rd,,43.713759,-79.581288,,,0,,,1,
20,8813,Willowdale Ave at Northwood Dr,,43.791424,-79.411164,,,0,,,2,
21,10763,Dovercourt Rd at Geary Ave North Side,,43.671083,-79.433224,,,0,,,2,
22,9285,Drewry Ave at Marthon Cres (East),,43.781792,-79.441105,,,0,,,1,
23,3022,Post Rd at Bayview Ave East Side,,43.736369,-79.381338,,,0,,,2,
24,6864,Queens Quay West at Rees St West Side,,43.63876,-79.387157,,,0,,,1,
25,11045,Albion Rd at Finch Ave West,,43.741208,-79.588821,,,0,,,1,
26,10239,Middlefield Rd at Passmore Ave,,43.827006,-79.264802,,,0,,,1,
28,2284,Eglinton Ave East at Laird Dr East Side,,43.713677,-79.363762,,,0,,,1,
29,2829,Lesmill Rd at Valleybrook Dr West Side,,43.757793,-79.355475,,,0,,,1,
30,6445,Huntingwood Dr at Garrybrook Dr,,43.789178,-79.30715,,,0,,,1,
31,3471,Davenport Rd at Osler St,,43.670383,-79.459172,,,0,,,1,
32,8939,Yonge Blvd at Dunster Ave North Side,,43.739877,-79.413594,,,0,,,1,
33,9654,185 Graydon Hall Dr,,43.764226,-79.342218,,,0,,,1,
34,2241,Eglinton Ave East at Beachell St,,43.742332,-79.222161,,,0,,,2,
35,3998,Keele St at Greenbrook Dr South Side,,43.696812,-79.475456,,,0,,,1,
37,4431,Le Page Crt at Keele St East Side,,43.758093,-79.488998,,,0,,,1,
40,1180,Jones Ave at Baird Ave,,43.676657,-79.338684,,,0,,,1,
42,2057,Dufferin St at Gordon St,,43.646696,-79.430224,,,0,,,1,
44,2441,Evans Ave at Gair Dr,,43.610092,-79.551991,,,0,,,1,
45,2837,Longbourne Dr at Redgrave Dr,,43.679218,-79.57013,,,0,,,1,
46,13916,Huntingwood Rd at Ridgecrest Dr,,43.78437,-79.31528,,,0,,,1,
48,7734,Elmhurst Dr at Muncey Ave,,43.724247,-79.55368,,,0,,,1,
50,2726,Islington Ave at Norseman St,,43.634118,-79.51889,,,0,,,1,
51,12019,McNicoll Ave at Midland Ave,,43.814437,-79.292415,,,0,,,1,
52,3191,Wilson Heights Blvd at Clifton Ave,,43.75896,-79.463205,,,0,,,1,
53,6006,Progress Ave at Estate Dr (West),,43.781041,-79.23775,,,0,,,1,
54,9787,Steeles Ave East at Midland Ave,,43.826099,-79.297089,,,0,,,1,
56,303,Bayview Ave at Hillcrest Ave,,43.772666,-79.389534,,,0,,,1,
57,3174,Willowridge Rd at Richgrove Dr,,43.675751,-79.568602,,,0,,,1,
58,8463,Victoria Park Ave at Furnival Rd,,43.712557,-79.297658,,,0,,,1,
60,5854,299 Norfinch Dr,,43.768397,-79.531258,,,0,,,1,
61,4320,Kipling Ave at Hayhurst Rd,,43.692199,-79.557813,,,0,,,1,
62,7990,Moore Ave at Orchard Green,,43.696364,-79.374325,,,0,,,2,
63,12521,Islington Ave at Finch Ave West South Side,,43.74577,-79.568755,,,0,,,1,
64,10847,105 Ironside Cres,,43.828637,-79.246914,,,0,,,1,
65,5616,Martin Grove Rd at Finch Ave West,,43.736669,-79.5914,,,0,,,1,
66,6092,Sheppard Ave West at Yatescastle Dr,,43.740433,-79.506722,,,0,,,1,
68,4174,King St West at Jameson Ave,,43.637264,-79.435842,,,0,,,2,
69,326,Bayview Ave at Wilket Rd,,43.74599,-79.383662,,,0,,,1,
71,3134,Trethewey Dr at Brookhaven Dr,,43.696992,-79.493473,,,0,,,1,
72,3738,Hullmar Dr at Hisey Cres (South) North Side,,43.770083,-79.529961,,,0,,,1,
73,1873,Davisville Ave at Forman Ave,,43.701547,-79.380739,,,0,,,2,
74,8596,Warden Ave at Murray Glen Dr,,43.756169,-79.299232,,,0,,,1,
76,9135,Calvington Dr at Keele St West Side,,43.733493,-79.484279,,,0,,,2,
77,13659,Main St Markham North at Bullock Dr,,43.88138,-79.26167,,,0,,,1,
79,7985,Moore Ave at Brendan Rd,,43.695296,-79.378662,,,0,,,1,
80,6739,Pharmacy Ave at Princeway Dr,,43.753264,-79.308784,,,0,,,1,
81,5908,Oakwood Ave at Highview Cres,,43.676397,-79.43463,,,0,,,1,
83,8708,Weston Rd at Coral Gable Dr,,43.73566,-79.538805,,,0,,,1,
84,100,Bathurst St at Fort York Blvd,,43.638947,-79.400771,,,0,,,2,
85,2909,McNicoll Ave at Warden Ave,,43.80617,-79.321258,,,0,,,1,
86,3060,Queen St East at Ontario St,,43.654914,-79.367262,,,0,,,1,
87,7336,South Dr at Glen Rd,,43.677609,-79.375709,,,0,,,2,
88,3274,Albion Rd at Martin Grove Rd East Side,,43.741652,-79.593301,,,0,,,1,
89,3649,Glencairn Ave at Danesbury Ave,,43.708453,-79.446634,,,0,,,2,
90,1879,84 Davisville Ave - Salvation Army,,43.699124,-79.393026,,,0,,,1,
91,7184,Sheppard Ave East at Greenbriar Rd,,43.768237,-79.38048,,,0,,,1,
92,341,Bellamy Rd North at Banmoor Blvd North Side,,43.75196,-79.233248,,,0,,,1,
93,9595,McLevin Ave at Greenspire Rd,,43.803144,-79.232276,,,0,,,1,
94,7468,York Mills Rd at Harrison Rd,,43.7496,-79.378889,,,0,,,1,
95,10538,Warden Ave at Denison St North Side,,43.82792,-79.326516,,,0,,,1,
96,5405,Lawrence Ave West at Scarlett Rd,,43.698042,-79.523367,,,0,,,2,
98,7173,Sheppard Ave East at Conlins Rd East Side,,43.80425,-79.189258,,,0,,,1,
99,7034,Royal York Rd at Trehorne Dr,,43.690289,-79.529987,,,0,,,1,
100,67,Avenue Rd at Lonsdale Rd South Side,,43.690299,-79.403055,,,0,,,1,
101,1355,601 Milner Ave,,43.793966,-79.223153,,,0,,,1,
103,4720,Wynford Dr at Don Mills Rd East Side,,43.723099,-79.338338,,,0,,,2,
104,6175,Weston Rd at Fern Ave South Side,,43.702116,-79.523302,,,0,,,1,
105,6131,St Clair Ave East at Victoria Park Ave West Side,,43.708945,-79.296378,,,0,,,1,
106,7063,Runnymede Rd at Maher Ave South Side,,43.662007,-79.480732,,,0,,,1,
107,1495,Rathburn Rd at Pheasant Lane,,43.66157,-79.535378,,,0,,,1,
108,10840,McNicoll Ave at Markham Rd,,43.823774,-79.24824,,,0,,,1,
110,242,Bay St at Dundas St West,,43.655825,-79.383879,,,0,,,1,
111,991,Dundas St West at Sterling Rd,,43.650631,-79.443251,,,0,,,2,
112,4888,Church St at Weston Rd,,43.703403,-79.524942,,,0,,,1,
114,6988,Royal York Rd at Darlingbrook Cres South Side,,43.670934,-79.521782,,,0,,,2,
115,9206,Heathrow Dr at Chesham Dr,,43.726714,-79.505012,,,0,,,1,
116,3708,Horner Ave at Alderbrae Ave,,43.602828,-79.540636,,,0,,,1,
117,3118,St Clair Ave East at Glen Eden Cres,,43.706846,-79.305951,,,0,,,1,
119,4218,Kingston Rd at Eastwood Ave,,43.690304,-79.267035,,,0,,,1,
120,14324,Markham Rd at Edward Jeffreys Ave,,43.896321,-79.26493,,,0,,,2,
121,1237,Leslie St at Commissioners St North Side,,43.65695,-79.326541,,,0,,,1,
122,636,Brimley Rd at Larkhall Ave North Side,,43.751108,-79.25425,,,0,,,1,
123,10143,Brimley Rd at Progress Ave,,43.775111,-79.262909,,,0,,,1,
125,3124,St Regis Cres at St Regis Cres North West Side,,43.755144,-79.486134,,,0,,,1,
126,3401,Canarctic Dr at Keele St,,43.775507,-79.493063,,,0,,,1,
127,9365,McCowan Rd at McNicoll Ave,,43.818132,-79.272206,,,0,,,1,
128,4128,Kennedy Rd at Village Green Sq,,43.777387,-79.28586,,,0,,,1,
129,6787,Prince Edward Dr South at Meadowvale Dr,,43.646879,-79.504626,,,0,,,1,
130,7729,Elmhurst Dr at Henley Cres West Side,,43.728728,-79.571792,,,0,,,2,
131,2881,McNicoll Ave at Brahms Ave,,43.799544,-79.359911,,,0,,,2,
132,6391,Foxwell St at Bruton Rd East Side,,43.670048,-79.498441,,,0,,,2,
133,685,Burnhamthorpe Rd at Old Burnhamthorpe Rd (East),,43.642747,-79.575602,,,0,,,1,
134,13431,Claireport Cres (West) at Albion Rd,,43.746846,-79.634653,,,0,,,1,
135,1853,Danforth Rd at Mack Ave,,43.700261,-79.272824,,,0,,,2,
136,5206,1216 Lansdowne Ave,,43.673282,-79.449421,,,0,,,2,
137,6549,Marlee Ave at Ridelle Ave,,43.70393,-79.441849,,,0,,,1,
138,13305,St Clair Ave West at Runnymede Rd West Side,,43.66887,-79.484326,,,0,,,1,
139,254,Bay St at Harbour St South Side - Ferry Docks Terminal,,43.641735,-79.377377,,,0,,,1,
140,7042,Royal York Rd at York View Dr,,43.630572,-79.504255,,,0,,,1,
141,3657,Glencairn Ave at Glenmount Ave,,43.711963,-79.430158,,,0,,,1,
142,7895,Opposite 3400 Keele St,,43.747916,-79.48704,,,0,,,1,
143,1905,Denton Ave at Madelaine Ave,,43.693522,-79.285673,,,0,,,1,
144,948,Davenport Rd at New St,,43.6747,-79.39311,,,0,,,1,
145,857,Cosburn Ave at Donlands Ave West Side,,43.690981,-79.342035,,,0,,,1,
146,5421,Leslie St at Bannatyne Dr North Side,,43.758903,-79.361143,,,0,,,1,
147,10654,Woodsworth Rd at Hopperton Dr (East),,43.764877,-79.371434,,,0,,,1,
148,6146,Tapscott Rd at Newgale Gate,,43.818214,-79.239653,,,0,,,1,
149,4314,Kipling Ave at Goswell Rd,,43.649052,-79.538342,,,0,,,2,
150,9574,McLevin Ave at Tapscott Rd,,43.80495,-79.226855,,,0,,,1,
151,9214,Arleta Ave at Medal Lane,,43.747718,-79.506309,,,0,,,1,
152,7727,Elmhurst Dr at Genthorn Ave,,43.725054,-79.564692,,,0,,,2,
153,964,Donlands Ave at Memorial Park Ave,,43.689286,-79.340814,,,0,,,1,
154,404,Birchmount Rd at Eglinton Ave East,,43.730225,-79.278074,,,0,,,1,
155,3473,Davenport Rd at Symington Ave,,43.670556,-79.453794,,,0,,,1,
156,8959,Yonge St at Blythwood Rd,,43.716269,-79.400257,,,0,,,1,
157,5678,McCowan Rd at St Andrews Rd,,43.760142,-79.247004,,,0,,,1,
159,1866,Davisville Ave at Acacia Rd,,43.69965,-79.389801,,,0,,,2,
160,3214,Yonge St at Bloor St West - Bloor Station,,43.670441,-79.386954,,,0,,,1,
161,2986,Overlea Blvd at William Morgan Dr West Side,,43.708042,-79.341738,,,0,,,1,
164,6112,St Clair Ave East at Inglewood Dr,,43.689714,-79.386688,,,0,,,1,
165,5595,Martin Grove Rd at Walkway to 308 Silverstone Dr,,43.749189,-79.597892,,,0,,,1,
166,5637,Martin Grove Rd at Redgrave Dr (North),,43.683481,-79.56738,,,0,,,1,
167,2427,Emmett Ave at Jane St,,43.69001,-79.500826,,,0,,,1,
169,6223,Albion Rd at Elmhurst Dr,,43.725287,-79.550901,,,0,,,1,
170,7497,Arrow Rd at Finch Ave West,,43.753006,-79.535911,,,0,,,1,
171,5430,Leslie St at Castlebury Cres,,43.796638,-79.369653,,,0,,,1,
173,196,Bathurst St at Saranac Blvd,,43.723161,-79.430751,,,0,,,1,
175,11676,Lawrence Ave East at Birchmount Rd,,43.747291,-79.285133,,,0,,,1,
176,1914,Don Mills Rd at Chipping Rd,,43.744827,-79.345629,,,0,,,1,
177,6940,225 Rexdale Blvd,,43.712216,-79.574622,,,0,,,1,
178,6486,Kingston Rd at Cromwell Rd West Side,,43.749401,-79.206461,,,0,,,1,
179,7355,Spadina Ave at Queen St West North Side,,43.649178,-79.396495,,,0,,,1,
180,1545,Sheppard Ave East at Willowdale Ave,,43.76413,-79.399503,,,0,,,1,
181,3282,Albion Rd at Westmore Dr East Side,,43.743454,-79.603399,,,0,,,1,
182,9525,Bathurst St at Walkway to Crown Heights Cres,,43.796726,-79.44669,,,0,,,1,
183,4907,Coxwell Ave at Mortimer Ave - Michael Garron Hospital,,43.690393,-79.326395,,,0,,,1,
184,8574,Warden Ave at Huntingwood Dr,,43.78558,-79.311163,,,0,,,1,
185,3589,Finch Ave West at Edithvale Dr,,43.777055,-79.427217,,,0,,,1,
186,8503,Victoria Park Ave at Sparks Ave,,43.808645,-79.33851,,,0,,,1,
187,343,Bellamy Rd North at Benleigh Dr South Side,,43.763167,-79.237531,,,0,,,1,
188,3724,Horner Ave at Kipling Ave,,43.607357,-79.520485,,,0,,,1,
189,3176,Wilmington Ave at Codsell Ave,,43.754932,-79.453524,,,0,,,1,
190,2764,Kennedy Rd at Summer Dr North Side,,43.722233,-79.263541,,,0,,,2,
191,6917,The Queensway at St Lawrence Ave,,43.622458,-79.519305,,,0,,,1,
192,643,Brimley Rd at Shediac Rd,,43.748931,-79.253566,,,0,,,1,
193,9173,Birchmount Rd at Risebrough Circt (South),,43.824208,-79.318211,,,0,,,1,
195,95,Bathurst St at Baycrest Ave,,43.729709,-79.43227,,,0,,,1,
196,10768,Dovercourt Rd at Shanly St,,43.664511,-79.430679,,,0,,,2,
197,11185,Lawrence Ave East at Morning Dew Rd,,43.772188,-79.169034,,,0,,,1,
198,8715,Weston Rd at Denison Rd West,,43.696304,-79.508408,,,0,,,1,
199,224,Bathurst St at Woburn Ave,,43.722434,-79.430385,,,0,,,1,
200,10711,Atkinson Ave at Rosedale Heights Dr (South),,43.813693,-79.443633,,,0,,,1,
201,10470,Opposite 700 Arrow Rd,,43.745407,-79.529314,,,0,,,2,
202,6633,Parliament St at Bloor St East,,43.671579,-79.37081,,,0,,,1,
203,3668,Greenwood Ave at Athletic Ave,,43.669339,-79.327249,,,0,,,1,
204,3740,Hullmar Dr at Monaco Crt,,43.76526,-79.527908,,,0,,,1,
206,5167,Lake Shore Blvd West at Third St,,43.601653,-79.500866,,,0,,,1,
207,7251,Sheppard Ave East at Victoria Park Ave,,43.775457,-79.322733,,,0,,,1,
208,3246,Yonge St at Wellesley St West - Wellesley Station,,43.665025,-79.3847,,,0,,,1,
209,7426,Victoria Park Ave at Sheppard Ave East,,43.775507,-79.323318,,,0,,,1,
210,8876,Wilson Ave at Murray Rd,,43.729711,-79.471403,,,0,,,1,
211,1004,Dupont St at Dufferin St,,43.668358,-79.439135,,,0,,,1,
212,13527,Major Mackenzie Dr East at Ridgecrest Rd,,43.900656,-79.304807,,,0,,,1,
213,5933,O'Connor Dr at Sandra Rd,,43.704655,-79.31359,,,0,,,1,
214,4144,King St East at Sackville St,,43.654602,-79.360165,,,0,,,1,
215,695,Burnhamthorpe Rd at Shaver Ave North West Side,,43.648209,-79.551986,,,0,,,2,
217,13927,Pharmacy Ave at Dawes Rd North Side,,43.708398,-79.290183,,,0,,,2,
218,2205,The East Mall at Capri Rd North Side,,43.652678,-79.563094,,,0,,,1,
219,13464,2666 Danforth Ave,,43.6888,-79.299321,,,0,,,1,
220,5121,High Park Ave at Humberside Ave,,43.660548,-79.468349,,,0,,,1,
221,894,Danforth Ave at Hillingdon Ave,,43.683774,-79.321292,,,0,,,1,
222,2865,Martin Grove Rd at Richgrove Dr North Side,,43.677322,-79.564238,,,0,,,1,
223,4086,Kennedy Rd at Forbes Rd South Side,,43.755088,-79.27719,,,0,,,1,
224,6302,44 Coe Hill Dr,,43.639189,-79.469561,,,0,,,1,
225,13466,Kingston Rd at Old Kingston Rd,,43.773854,-79.183177,,,0,,,1,
226,4871,Chisholm Ave at Crewe Ave,,43.694283,-79.30583,,,0,,,1,
227,8641,Wellesworth Dr at Faversham Cres,,43.658866,-79.579656,,,0,,,1,
228,4903,Coxwell Ave at Glebeholme Blvd,,43.685691,-79.324472,,,0,,,1,
229,6855,Queen St West at Strachan Ave,,43.645403,-79.413052,,,0,,,1,
230,3419,Chaplin Cres at Roselawn Ave,,43.705299,-79.423672,,,0,,,1,
231,11699,10 Disco Rd,,43.701867,-79.592678,,,0,,,2,
233,8828,Willowdale Ave at Wedgewood Dr,,43.79028,-79.410949,,,0,,,1,
235,5653,Martin Grove Rd at Waterbury Dr,,43.687701,-79.568932,,,0,,,2,
236,438,Opposite 1792 Birchmount Rd,,43.765676,-79.291272,,,0,,,1,
237,3405,Ceramic Rd at Le Page Crt,,43.758851,-79.484719,,,0,,,2,
238,9962,Crosby Ave at Warren Cres,,43.661701,-79.500094,,,0,,,1,
239,6941,Rexdale Blvd at Frost St East Side,,43.712262,-79.563763,,,0,,,1,
242,465,Birchmount Rd at Opposite Walkway to Ambercroft Blvd,,43.813928,-79.313425,,,0,,,1,
244,13963,Roywood Dr at Fortrose Cres (West),,43.765905,-79.329219,,,0,,,1,
245,6668,3370 Pharmacy Ave,,43.805754,-79.331609,,,0,,,1,
246,6240,Ameer Ave at Sultana Ave,,43.727038,-79.440355,,,0,,,1,
247,11714,Neilson Rd at Malvern Town Centre (East Entrance),,43.8079,-79.219949,,,0,,,1,
248,8387,Underhill Dr at Roanoke Rd,,43.742,-79.325315,,,0,,,1,
249,11230,Concorde Pl at Concorde Gate South Side,,43.729085,-79.328506,,,0,,,1,
250,3618,Finch Ave West at Torresdale Ave West Side,,43.772336,-79.451367,,,0,,,1,
251,3072,Queen St East at Saulter St East Side,,43.659402,-79.347097,,,0,,,1,
252,6042,Scarborough Golf Club Rd at Lawrence Ave East,,43.762027,-79.215999,,,0,,,1,
253,8592,Warden Ave at Metropolitan Rd South Side,,43.766822,-79.302799,,,0,,,1,
255,2510,Finch Ave East at Gaspe Rd East Side,,43.785766,-79.388562,,,0,,,1,
256,400,Birchmount Rd at Denison St,,43.832649,-79.318647,,,0,,,1,
258,457,Birchmount Rd at Opposite Walkway to River Grove Dr,,43.818437,-79.315416,,,0,,,1,
259,13903,Neilson Rd at Neilson Park Dr,,43.81439,-79.226549,,,0,,,1,
260,116,Bathurst St at Danby Ave,,43.749183,-79.437058,,,0,,,1,
261,9269,Drewry Ave at Yonge St West Side,,43.787075,-79.417804,,,0,,,1,
262,2394,Eglinton Ave West at Oriole Pkwy East Side,,43.705148,-79.40554,,,0,,,1,
263,6109,St Clair Ave East at Herron Ave,,43.711293,-79.285075,,,0,,,1,
264,9203,Heathrow Dr at Jane St,,43.725031,-79.509209,,,0,,,1,
265,5340,Lawrence Ave West at Benton Rd,,43.710145,-79.47202,,,0,,,1,
266,3817,Islington Ave at Milady Rd,,43.752433,-79.56851,,,0,,,1,
267,2249,Eglinton Ave East at Birchmount Rd,,43.729763,-79.278137,,,0,,,1,
268,9473,Ellesmere Rd at Military Trail (East),,43.78669,-79.188167,,,0,,,1,
269,2707,Humberline Dr at Huddersfield Rd,,43.743504,-79.62084,,,0,,,1,
270,7547,Birchmount Rd at Danforth Ave,,43.696844,-79.263822,,,0,,,1,
271,4405,Lansdowne Ave at Lappin Ave,,43.665163,-79.445918,,,0,,,1,
273,1829,Cummer Ave at Yonge St,,43.7873,-79.416321,,,0,,,1,
274,1756,Broadview Ave at Dundas St East,,43.6626,-79.351506,,,0,,,2,
275,5975,Ossington Ave at Leeds St South Side,,43.663872,-79.426518,,,0,,,1,
276,1401,Neilson Rd at Sheppard Ave East,,43.798278,-79.217892,,,0,,,1,
277,2886,McNicoll Ave at Don Mills Rd,,43.79967,-79.353848,,,0,,,1,
278,5399,Lawrence Ave West at Roxaline St,,43.696704,-79.529765,,,0,,,2,
279,6119,St Clair Ave East at Mt Pleasant Rd West Side,,43.690306,-79.383911,,,0,,,1,
280,6270,Brown's Line at Horner Ave,,43.601827,-79.54543,,,0,,,1,
281,5857,375 Norfinch Dr,,43.770165,-79.531686,,,0,,,1,
283,3319,Beechgrove Dr at Dunstall Cres,,43.772505,-79.160886,,,0,,,2,
284,622,Brimley Rd at Dallyn Cres,,43.741205,-79.25039,,,0,,,1,
285,8772,Weston Rd at Toryork Dr,,43.753493,-79.542887,,,0,,,1,
287,1086,Gerrard St East at De Grassi St,,43.66641,-79.348419,,,0,,,2,
288,3454,Coronation Dr at Manse Rd,,43.76452,-79.173148,,,0,,,1,
289,3269,Albion Rd at Carrier Dr,,43.74558,-79.61401,,,0,,,1,
290,7660,Dufferin St at Supertest Rd,,43.777829,-79.468955,,,0,,,1,
292,4423,Lawrence Ave East at Morningside Ave,,43.76821,-79.186546,,,0,,,1,
293,1747,The Bridle Path at Park Lane Cir,,43.730749,-79.361238,,,0,,,1,
294,7860,Humber College Blvd at Humberline Dr,,43.732115,-79.60889,,,0,,,1,
295,4763,Airport Rd at Northwest Dr,,43.698901,-79.635642,,,0,,,2,
296,59,Avenue Rd at Dunblaine Ave,,43.735846,-79.41995,,,0,,,1,
297,7055,Runnymede Rd at Deforest Rd,,43.648653,-79.4752,,,0,,,2,
298,9506,715 Finch Ave West,,43.769727,-79.462373,,,0,,,1,
300,6839,Queen St West at Brock Ave,,43.641545,-79.432245,,,0,,,1,
301,1647,William R Allen Rd at Sheppard Ave West South Side,,43.749635,-79.463343,,,0,,,1,
302,4260,Kingston Rd at Sandown Ave,,43.70858,-79.249674,,,0,,,1,
303,6317,Commissioners St at Logan Ave,,43.651835,-79.337506,,,0,,,2,
304,8481,Victoria Park Ave at Meadowacres Dr,,43.771798,-79.321251,,,0,,,1,
305,1919,Don Mills Rd at Deerford Rd,,43.785281,-79.35057,,,0,,,1,
306,9503,Lawrence Ave East at Markham Rd,,43.759631,-79.225553,,,0,,,1,
307,6024,Rogers Rd at Gilbert Ave,,43.683445,-79.459325,,,0,,,2,
308,1825,285 Cummer Ave - St John's Rehab Hospital,,43.789637,-79.405129,,,0,,,2,
309,9250,Thirtieth St at Elder Ave,,43.597919,-79.530991,,,0,,,2,
310,5638,Martin Grove Rd at Rexdale Blvd South Side,,43.713568,-79.581134,,,0,,,1,
311,1111,Gerrard St East at University Ave,,43.657731,-79.388929,,,0,,,1,
312,3652,Glencairn Ave at Englemount Ave,,43.710646,-79.435733,,,0,,,1,
313,90,Bathurst St at Bainbridge Ave,,43.75091,-79.437474,,,0,,,1,
314,1098,Gerrard St East at Marjory Ave,,43.668684,-79.337632,,,0,,,2,
315,1062,Fleet St at Strachan Ave,,43.636172,-79.410145,,,0,,,1,
316,11078,Carrier Dr at Dansk Crt South Side,,43.743515,-79.61471,,,0,,,2,
317,3623,Finch Ave West at Wilmington Ave,,43.770363,-79.46065,,,0,,,1,
318,4073,Kennedy Rd at Brigstock Rd,,43.761387,-79.279261,,,0,,,1,
320,2948,Morningside Ave at Morningview Trail,,43.813343,-79.206063,,,0,,,1,
321,4726,123 Wynford Dr,,43.726923,-79.329142,,,0,,,1,
322,2633,Opposite 1685 Finch Ave West - St Wilfreds School,,43.760411,-79.503238,,,0,,,1,
323,2517,Finch Ave East at Kenneth Ave,,43.780577,-79.412214,,,0,,,1,
324,7023,Royal York Rd at The Queensway,,43.626498,-79.50278,,,0,,,1,
325,1482,Rathburn Rd at Islington Ave West Side,,43.662364,-79.531737,,,0,,,1,
326,310,Bayview Ave at Opposite Garnier Park,,43.800927,-79.395689,,,0,,,1,
327,5019,Dundas St West at Nottingham Dr,,43.655267,-79.522723,,,0,,,2,
328,10863,6807 Steeles Ave West,,43.756036,-79.611033,,,0,,,1,
329,6963,Opposite 400 Rockcliffe Blvd - Rockcliffe Middle School,,43.674739,-79.488356,,,0,,,1,
330,4510,Old Weston Rd at Turnberry Ave,,43.67825,-79.46463,,,0,,,1,
331,7911,Laurentide Dr at Barnwood Crt East Side,,43.753092,-79.33874,,,0,,,1,
333,4109,Kennedy Rd at Cowdray Crt,,43.780431,-79.286698,,,0,,,1,
334,9130,Finch Ave West at Yonge St West Side,,43.779728,-79.416164,,,0,,,1,
335,1906,Denton Ave at St Dunstan Dr,,43.693583,-79.285951,,,0,,,1,
336,7290,Sheppard Ave West at Maxwell St,,43.754151,-79.445628,,,0,,,2,
337,9810,McCowan Rd at Alton Towers Cir (North),,43.82702,-79.276064,,,0,,,1,
338,976,Donlands Ave at Torrens Ave,,43.69285,-79.342456,,,0,,,1,
339,1535,Sheppard Ave East at Doris Ave,,43.762274,-79.408102,,,0,,,1,
340,7007,800 Royal York Rd,,43.63922,-79.508702,,,0,,,1,
341,5330,Lawrence Ave East at Warden Ave,,43.745187,-79.295013,,,0,,,1,
342,13473,Humberline Dr at Viewcrest Cir,,43.732276,-79.617211,,,0,,,1,
343,45,Avenue Rd at Balmoral Ave North Side,,43.684707,-79.400532,,,0,,,1,
344,6133,St Clair Ave East at Westview Blvd,,43.706133,-79.310074,,,0,,,2,
345,6057,2002-2012 Sheppard Ave West,,43.738711,-79.516709,,,0,,,1,
346,11292,Finch Ave West at Highway 27,,43.73388,-79.603867,,,0,,,1,
347,4382,Kipling Ave at Tyre Ave,,43.64501,-79.536573,,,0,,,2,
348,5569,Markham Rd at Lawrence Ave East,,43.759679,-79.225072,,,0,,,1,
350,5478,Leslie St at Southwell Dr North Side,,43.746257,-79.358382,,,0,,,2,
352,3482,Opposite 111 Disco Rd,,43.700349,-79.599302,,,0,,,1,
353,2919,Midland Ave at Wilkie Ave,,43.71552,-79.250145,,,0,,,1,
355,9158,Leslie St at Ballyronan Rd,,43.749395,-79.359037,,,0,,,1,
356,9102,Opposite 25 Kodiak Cres,,43.754066,-79.46622,,,0,,,1,
358,4924,Culford Rd at George Anderson Dr,,43.703148,-79.486494,,,0,,,2,
360,14245,Warden Ave at Glenbourne Park Dr,,43.882273,-79.34063,,,0,,,1,
361,2495,Finch Ave East at Bridletowne Circle (East),,43.797673,-79.312116,,,0,,,1,
362,7409,Varna Dr at Rondale Blvd North Side,,43.721389,-79.440968,,,0,,,1,
363,617,Brimley Rd at Arnprior Rd South Side,,43.751152,-79.254486,,,0,,,1,
364,10524,Ellesmere Rd at Zaph Ave,,43.79184,-79.166565,,,0,,,2,
365,13684,185 Yorkland Blvd,,43.771262,-79.335442,,,0,,,1,
367,9667,Brimley Rd at Danjohn Cres (North) South Side,,43.812873,-79.280655,,,0,,,1,
368,2362,Eglinton Ave West at Islington Ave,,43.679694,-79.539176,,,0,,,1,
369,8446,Victoria Park Ave at Dawes Rd,,43.706606,-79.294903,,,0,,,1,
370,10149,Brimley Rd at Grittani Lane South Side,,43.780833,-79.265503,,,0,,,2,
371,2782,Kingston Rd at Lee Ave,,43.678012,-79.301308,,,0,,,1,
372,5452,Leslie St at Kirkwood Rd,,43.756517,-79.360962,,,0,,,1,
373,1168,Jane St at Ardagh St,,43.655651,-79.486964,,,0,,,1,
374,7376,Stephen Dr at Whitworth Ave,,43.632393,-79.485187,,,0,,,1,
375,3204,Woodbine Ave at Sammon Ave,,43.69125,-79.315303,,,0,,,1,
376,13644,Main St Markham North at Ramona Blvd - Markham GO Station,,43.88287,-79.261889,,,0,,,1,
377,1767,Broadview Ave at Withrow Ave,,43.669859,-79.353435,,,0,,,2,
378,2903,McNicoll Ave at Placer Crt,,43.803283,-79.342119,,,0,,,1,
379,13943,125 The Queensway,,43.630685,-79.482249,,,0,,,1,
380,3094,Rexleigh Dr at St Clair Ave East,,43.706475,-79.30699,,,0,,,1,
382,5005,Dixon Rd at Wincott Dr,,43.695627,-79.552328,,,0,,,1,
383,632,Brimley Rd at Gully Dr South Side,,43.743455,-79.251289,,,0,,,1,
384,1763,Broadview Ave at Jack Layton Way,,43.666481,-79.353132,,,0,,,2,
385,6127,St Clair Ave East at Selwyn Ave,,43.707088,-79.305805,,,0,,,1,
386,1552,St Clair Ave East at Andrew Ave,,43.720079,-79.244714,,,0,,,1,
387,4313,Kipling Ave at Genthorn Ave,,43.723547,-79.572536,,,0,,,1,
388,6916,The Queensway at South Kingsway,,43.635819,-79.473052,,,0,,,1,
390,3019,60 Park Lane Cir,,43.729346,-79.367119,,,0,,,1,
391,11090,Opposite 225 Carrier Dr,,43.749175,-79.615811,,,0,,,2,
394,5458,Leslie St at Marowyne Dr,,43.775075,-79.364803,,,0,,,1,
395,2822,Lawrence Ave East at Tremont Cres (West) West Side,,43.735106,-79.353626,,,0,,,2,
396,12055,Progress Ave at Sheppard Ave East South Side,,43.794213,-79.234918,,,0,,,1,
397,5214,Lansdowne Ave at Davenport Rd,,43.671425,-79.448192,,,0,,,1,
398,3433,Chesswood Dr at Vanley Cres (South)  South Side,,43.759209,-79.47809,,,0,,,1,
399,9557,Milner Ave at Neilson Rd,,43.795603,-79.216322,,,0,,,2,
400,6655,Peckham Ave at Donnalyn Dr South Side,,43.790595,-79.436822,,,0,,,1,
401,10526,Ellesmere Rd at Morrish Rd,,43.790274,-79.173121,,,0,,,1,
402,4661,Tapscott Rd at McLevin Ave,,43.805224,-79.227067,,,0,,,1,
403,2406,Eglinton Ave West at Scarlett Rd,,43.683789,-79.511557,,,0,,,1,
404,8694,Weston Rd at Bartonville Ave West,,43.689401,-79.496555,,,0,,,1,
406,2454,Evans Ave at Sherway Gate West Side,,43.609022,-79.556933,,,0,,,1,
407,11586,Mimico Ave at Royal York Rd,,43.61236,-79.496407,,,0,,,1,
408,2600,Finch Ave West at Halesia Dr,,43.733658,-79.606898,,,0,,,1,
409,5694,Midland Ave at Dorcot Ave,,43.757824,-79.267294,,,0,,,1,
411,3133,Trethewey Dr at Brookhaven Dr,,43.696817,-79.494201,,,0,,,1,
412,9358,McCowan Rd at Big Red Ave North Side,,43.814781,-79.270447,,,0,,,1,
414,9851,Brenyon Way at Sheppard Ave East,,43.800741,-79.207086,,,0,,,1,
416,1612,Triton Rd at Brimley Rd,,43.773658,-79.261533,,,0,,,1,
417,3342,Belfield Rd at Shaft Rd West Side - Etobicoke North GO Stati,,43.704066,-79.566634,,,0,,,1,
418,3806,Islington Ave at Kingsview Blvd,,43.699602,-79.547712,,,0,,,1,
419,4368,Kipling Ave at Redwater Dr,,43.715401,-79.568295,,,0,,,1,
421,8326,Sutherland Dr at Bayview Ave,,43.698816,-79.372316,,,0,,,2,
422,9241,North Queen St at Medulla Ave,,43.62126,-79.54552,,,0,,,1,
424,626,Brimley Rd at Eglinton Ave East,,43.736862,-79.248419,,,0,,,1,
425,9415,Victoria Park Ave at Meadow Ave,,43.681801,-79.28454,,,0,,,1,
426,47,Avenue Rd at Bloor St West North Side,,43.669222,-79.394239,,,0,,,1,
427,6589,Middlefield Rd at Nashdene Rd North Side,,43.817581,-79.260909,,,0,,,1,
428,3343,Belfield Rd at Shaft Rd - Etobicoke North GO Station,,43.703944,-79.566147,,,0,,,1,
429,6775,Prince Edward Dr South at Fairmar Ave,,43.637559,-79.500826,,,0,,,2,
430,5858,75 Norfinch Dr,,43.759874,-79.528818,,,0,,,1,
431,7041,Royal York Rd at Yorkleigh Ave,,43.694243,-79.531969,,,0,,,1,
432,14053,275 Grandravine Dr,,43.74816,-79.508358,,,0,,,1,
433,9693,Clonmore Dr at Cornell Ave,,43.691784,-79.275172,,,0,,,2,
434,10757,Leslie St at Lesmill Rd,,43.763557,-79.361675,,,0,,,1,
436,4531,Progress Ave at William Kitchen Rd West Side,,43.770157,-79.27927,,,0,,,1,
437,1332,Midland Ave at Wolfe Ave,,43.727054,-79.254847,,,0,,,1,
438,12126,Colonel Samuel Park at Opposite Humber College Cottages C-M,,43.595725,-79.515972,,,0,,,1,
439,1187,Jones Ave at Gerrard St East North Side,,43.669595,-79.335655,,,0,,,1,
440,7502,Arrow Rd at Pemican Crt North Side,,43.749441,-79.532558,,,0,,,1,
442,1043,Ellesmere Rd at Dolly Varden Blvd West Side,,43.775797,-79.235291,,,0,,,1,
443,5526,Lumsden Ave at Westlake Ave,,43.694261,-79.308634,,,0,,,1,
444,9419,836 Davenport Rd East Side,,43.676337,-79.419967,,,0,,,1,
445,9683,Gerrard St East at Malvern Ave,,43.685056,-79.294792,,,0,,,2,
446,11098,Brimorton Dr at Dalehurst Ave,,43.770724,-79.21432,,,0,,,1,
447,502,Bloor St West at Colborne Lodge Dr,,43.653432,-79.465379,,,0,,,1,
448,9253,Thirtieth St at Elder Ave,,43.597687,-79.530664,,,0,,,2,
449,6997,Royal York Rd at Glenroy Ave,,43.642141,-79.509142,,,0,,,1,
450,12057,Progress Ave at Milner Ave,,43.790487,-79.234372,,,0,,,1,
452,3713,Horner Ave at Connorvale Ave,,43.605477,-79.528801,,,0,,,1,
453,2278,Eglinton Ave East at Jonesville Cres,,43.725127,-79.306649,,,0,,,1,
454,3853,Islington Ave at The Westway South Side,,43.68824,-79.542872,,,0,,,1,
455,1361,Milner Ave at McCowan Rd East Side,,43.785461,-79.255629,,,0,,,1,
456,11265,75 Tandridge Cres,,43.728963,-79.546,,,0,,,1,
457,4616,Spadina Rd at Strathearn Blvd South Side,,43.690717,-79.413588,,,0,,,1,
458,7067,Runnymede Rd at Morningside Ave,,43.645951,-79.474253,,,0,,,2,
459,8439,Victoria Park Ave at Combermere Dr South Side,,43.7558,-79.314681,,,0,,,1,
460,5590,Martin Grove Rd at Albion Rd,,43.741497,-79.593786,,,0,,,1,
461,6629,Pape Ave at Harcourt Ave,,43.677622,-79.344439,,,0,,,1,
462,286,Bayview Ave at Cummer Ave,,43.792145,-79.393441,,,0,,,1,
463,2150,Dundas St West at Bloor St West,,43.6561,-79.45233,,,0,,,2,
464,6848,Queen St West at Palmerston Ave,,43.646763,-79.406434,,,0,,,1,
465,2656,480 Gordon Baker Rd,,43.809298,-79.345222,,,0,,,1,
466,8580,Warden Ave at Kingston Rd,,43.688074,-79.27117,,,0,,,1,
467,13314,Scarlett Rd at Foxwell St South Side,,43.66854,-79.501042,,,0,,,1,
468,2438,Evans Ave at Eastwick Rd West Side,,43.617783,-79.51559,,,0,,,1,
469,12094,McCowan Rd at Bridlegrove Dr,,43.7345,-79.236519,,,0,,,1,
470,8908,Woodbine Ave at Bracebridge Ave North Side,,43.69795,-79.317958,,,0,,,1,
471,8230,Steeles Ave East at Lillian St East Side,,43.799781,-79.41153,,,0,,,1,
472,5944,O'Connor Dr at Woodmount Ave,,43.699373,-79.321548,,,0,,,1,
473,1593,Steeles Ave West at Murray Ross Pkwy,,43.776613,-79.516784,,,0,,,1,
474,4824,Brimley Rd at Heather Rd South Side,,43.790306,-79.269974,,,0,,,1,
475,14254,Finch Ave West at Humber College Blvd East Side,,43.733914,-79.609339,,,0,,,1,
477,755,Carlton St at Ontario St,,43.663621,-79.37064,,,0,,,2,
478,5714,Midland Ave at Lockie Ave North Side,,43.78933,-79.280053,,,0,,,1,
480,3519,Dundas St West at Royalavon Cres,,43.645406,-79.531899,,,0,,,1,
481,2635,Finch Ave West at Tangiers Rd,,43.764272,-79.488069,,,0,,,1,
482,407,Birchmount Rd at Ellesmere Rd,,43.763616,-79.291569,,,0,,,1,
483,21,Annette St at Clendenan Ave,,43.662086,-79.472496,,,0,,,1,
484,172,Bathurst St at Marquette Ave,,43.734195,-79.433342,,,0,,,1,
485,4696,Victoria Park Ave at Swanwick Ave,,43.685254,-79.285963,,,0,,,1,
486,9354,Steeles Ave East at Putnam Gate,,43.822702,-79.311866,,,0,,,1,
487,10923,Middlefield Rd at Steeles Ave East,,43.832957,-79.268141,,,0,,,1,
489,1675,Yorkdale Rd at Yorkdale Mall (North Entrance),,43.728242,-79.453438,,,0,,,1,
490,5408,Lawrence Ave West at Shermount Ave,,43.716859,-79.441035,,,0,,,1,
491,7819,Harbord St at St George St,,43.663842,-79.398673,,,0,,,1,
492,1470,Rathburn Rd at Cedarland Dr,,43.661376,-79.535773,,,0,,,1,
493,4918,Craigton Dr at Pharmacy Ave,,43.727075,-79.298426,,,0,,,2,
494,10001,McCowan Rd at Raymerville Dr (North),,43.881381,-79.28777,,,0,,,1,
495,6645,Parliament St at Richmond St East,,43.65445,-79.363856,,,0,,,1,
497,7137,Sheppard Ave East at Murison Blvd West Side,,43.798969,-79.214298,,,0,,,1,
498,1095,Gerrard St East at Leslie St,,43.66988,-79.332933,,,0,,,2,
499,8314,Steeles Ave West at Emerald Lane,,43.793572,-79.440815,,,0,,,1,
500,2382,Eglinton Ave West at Martin Grove Rd East Side,,43.674419,-79.562591,,,0,,,1,
501,3615,Opposite 685 Finch Ave West - St Bernard's Residence,,43.771053,-79.457455,,,0,,,1,
502,2008,Driftwood Ave at Wilmont Dr,,43.759887,-79.516325,,,0,,,1,
503,1040,Eglinton Ave East at Torrance Rd West Side,,43.739553,-79.235824,,,0,,,1,
504,1728,Bayview Ave at Millwood Rd,,43.70415,-79.374446,,,0,,,1,
505,1686,Albion Rd at Sanagan Rd,,43.738903,-79.576364,,,0,,,1,
506,11485,2040 Don Mills Rd,,43.763142,-79.347344,,,0,,,1,
507,6034,Rogers Rd at Northcliffe Blvd,,43.686109,-79.443821,,,0,,,2,
509,1472,Rathburn Rd at The East Mall East Side,,43.655001,-79.563677,,,0,,,1,
510,7138,Sheppard Ave East at Walkway to Howell Sq,,43.797075,-79.22322,,,0,,,1,
511,4573,Roncesvalles Ave at Galley Ave,,43.642982,-79.447845,,,0,,,2,
512,3061,Queen St East at Ontario St,,43.655161,-79.366816,,,0,,,1,
513,7135,Sheppard Ave East at Walkway to Hutcherson Sq,,43.797653,-79.220285,,,0,,,2,
514,5349,Lawrence Ave West at Brucewood Cres,,43.71859,-79.432803,,,0,,,1,
515,7221,Sheppard Ave East at Murison Blvd East Side,,43.799156,-79.212357,,,0,,,1,
516,10632,North Queen St at The Queensway,,43.614581,-79.5565,,,0,,,1,
518,3245,Yonge St at Wellesley St East - Wellesley Station,,43.664812,-79.38436,,,0,,,1,
519,2766,Kingston Rd at Beech Ave,,43.680164,-79.290892,,,0,,,1,
520,9526,Bathurst St at Walkway to Mullen Dr,,43.796714,-79.446841,,,0,,,1,
521,6128,St Clair Ave East at St Columba Pl,,43.705761,-79.31061,,,0,,,2,
522,3268,Albion Rd at Carrier Dr,,43.745412,-79.61457,,,0,,,1,
523,7709,Ellesmere Rd at Packard Blvd,,43.770694,-79.257782,,,0,,,1,
524,6003,Princess Margaret Blvd at Lloyd Manor Rd,,43.667319,-79.552488,,,0,,,1,
525,4331,Kipling Ave at Kidron Valley Dr,,43.756076,-79.588057,,,0,,,1,
526,7332,Sherbourne St at Wellesley St East,,43.666898,-79.374519,,,0,,,1,
527,245,Bay St at Elm St,,43.657387,-79.384516,,,0,,,1,
528,5673,McCowan Rd at Lawrence Ave East Scarborough General Hospital,,43.755742,-79.245668,,,0,,,1,
529,11241,Morningview Trail at Gennela Sq,,43.814468,-79.202932,,,0,,,1,
530,8528,Warden Ave at Apartments (South of Finch),,43.794836,-79.315109,,,0,,,1,
531,8642,Wellesworth Dr at Gentian Dr,,43.665383,-79.581455,,,0,,,2,
532,197,Bathurst St at Shelborne Ave,,43.715842,-79.428833,,,0,,,2,
533,3930,Jane St at Stanley Rd,,43.743153,-79.514309,,,0,,,1,
534,3593,Finch Ave West at Goldfinch Crt East Side,,43.772257,-79.450489,,,0,,,1,
536,2085,Dufferin St at Auburn Ave,,43.675621,-79.442182,,,0,,,1,
538,5662,McCowan Rd at Benleigh Dr,,43.75845,-79.246336,,,0,,,1,
539,6357,East Ave at Maberley Cres (North),,43.785051,-79.133342,,,0,,,1,
540,814,College St at Bay St,,43.66092,-79.385569,,,0,,,2,
541,8110,Sloane Ave at Sweeney Dr South Side,,43.735468,-79.312392,,,0,,,1,
542,5182,Lake Shore Blvd West at Colonel Samuel Smith Park Dr,,43.598047,-79.517179,,,0,,,1,
543,3620,Finch Ave West at Virgilwood Dr - North York General Finch B,,43.772698,-79.448324,,,0,,,1,
545,6355,East Ave at East Willow Gate,,43.787304,-79.134296,,,0,,,1,
546,714,Caledonia Rd at Corby Ave,,43.684866,-79.458857,,,0,,,2,
547,5962,Ossington Ave at Dundas St West,,43.649438,-79.420865,,,0,,,1,
548,645,Brimley Rd at Strode Dr South Side,,43.739428,-79.24961,,,0,,,1,
549,6960,Rockcliffe Blvd at Lambton Ave South Side,,43.682009,-79.4916,,,0,,,1,
550,4364,Kipling Ave at Rathburn Rd,,43.659757,-79.542992,,,0,,,1,
551,8394,Upper Canada Dr at Lord Seaton Rd (East),,43.75965,-79.396442,,,0,,,1,
552,221,Bathurst St at Wilson Ave,,43.737188,-79.433814,,,0,,,1,
554,5652,Martin Grove Rd at Vulcan St,,43.704926,-79.576812,,,0,,,1,
555,2201,The East Mall at Bloor St West,,43.636832,-79.556401,,,0,,,1,
556,2894,McNicoll Ave at Michael Dr,,43.803074,-79.364838,,,0,,,1,
557,7698,Ellesmere Rd at Military Trail (East),,43.786439,-79.188422,,,0,,,1,
558,5292,Lawrence Ave East at Meadowvale Rd,,43.775359,-79.156006,,,0,,,1,
559,8635,Wellesley St West at Queen's Park Cres East East Side,,43.663633,-79.390156,,,0,,,1,
560,930,Davenport Rd at Belmont St,,43.674638,-79.392555,,,0,,,1,
561,8875,Wilson Ave at Murray Rd,,43.729408,-79.471718,,,0,,,2,
562,7214,Sheppard Ave East at Maris Shepway East Side,,43.771924,-79.360843,,,0,,,1,
563,8472,Victoria Park Ave at Ivordale Cres (South) South Side,,43.752862,-79.313674,,,0,,,1,
564,233,Bay St at Albert St,,43.652891,-79.382492,,,0,,,1,
565,5136,Laird Dr at Canvarco Rd,,43.703666,-79.360697,,,0,,,1,
566,4902,Coxwell Ave at Cosburn Ave,,43.694002,-79.327834,,,0,,,1,
567,9570,McLevin Ave at Malvern St,,43.799705,-79.237767,,,0,,,1,
569,1868,Davisville Ave at Bayview Ave West Side,,43.702938,-79.374563,,,0,,,1,
570,3166,Westlake Ave at Hamstead Ave,,43.696423,-79.309042,,,0,,,2,
571,7319,Sherbourne St at Gerrard St East,,43.661373,-79.372381,,,0,,,1,
572,259,Bathurst St at Clark Ave West South Side,,43.802899,-79.448396,,,0,,,1,
573,8117,Spadina Rd at Bernard Ave South Side,,43.671797,-79.405979,,,0,,,1,
575,9151,Keele St at Grandravine Dr,,43.751925,-79.487981,,,0,,,1,
576,8358,35 Thorncliffe Park Dr,,43.701905,-79.344381,,,0,,,1,
578,4491,Milvan Dr at Penn Dr (South),,43.75159,-79.5531,,,0,,,1,
580,5745,Midland Ave at Stubbswood Sq,,43.794831,-79.282368,,,0,,,2,
581,9287,Drewry Ave at Grantbrook St,,43.783394,-79.433869,,,0,,,1,
583,5795,Mortimer Ave at Woodbine Ave,,43.692596,-79.315977,,,0,,,1,
584,1849,295 Danforth Rd,,43.701442,-79.271596,,,0,,,1,
585,3698,High Park Ave at Humberside Ave,,43.660406,-79.468086,,,0,,,1,
586,2563,Finch Ave East at Tollerton Ave,,43.786413,-79.386577,,,0,,,1,
587,7217,Sheppard Ave East at Midland Ave,,43.78511,-79.279041,,,0,,,1,
588,3934,Jane St at Troutbrooke Dr North Side,,43.732115,-79.51113,,,0,,,1,
589,8949,Yonge Blvd at Yonge St West Side,,43.734367,-79.404989,,,0,,,2,
590,4250,Kingston Rd at Parkcrest Dr,,43.73564,-79.220356,,,0,,,1,
591,2283,Eglinton Ave East at Kingston Rd,,43.743796,-79.212135,,,0,,,1,
592,6324,Consumers Rd at Victoria Park Ave West Side,,43.771883,-79.322301,,,0,,,1,
593,339,130 Bellamy Rd North,,43.742221,-79.230355,,,0,,,2,
595,3129,Townsend Rd at Freshmeadow Dr,,43.810118,-79.356868,,,0,,,1,
596,4807,Bradstock Rd at Weston Rd East Side,,43.739021,-79.538944,,,0,,,1,
597,2728,Islington Ave at The Queensway North Side,,43.624047,-79.514742,,,0,,,1,
598,2430,Evans Ave at Arnold St West Side,,43.616633,-79.520893,,,0,,,1,
599,2446,Evans Ave at Islington Ave West Side,,43.618229,-79.51288,,,0,,,1,
600,4098,Kennedy Rd at Linwood Ave,,43.79345,-79.29257,,,0,,,1,
601,9723,Murison Blvd at Milner Ave North Side,,43.799295,-79.202522,,,0,,,1,
602,13694,Kingston Rd at Old Kingston Rd,,43.774223,-79.182991,,,0,,,1,
603,6905,The Queensway at Park Lawn Rd East Side,,43.629138,-79.489215,,,0,,,2,
604,14190,Dundas St West at Humber Hill Ave,,43.665097,-79.501201,,,0,,,1,
605,4240,Kingston Rd at McCowan Rd,,43.725443,-79.232312,,,0,,,1,
606,4372,Kipling Ave at Ronson Dr,,43.702689,-79.562632,,,0,,,1,
607,10831,Opposite 3471 McNicoll Ave,,43.822752,-79.254543,,,0,,,1,
609,6412,Grantbrook St at Finch Ave West,,43.77643,-79.431862,,,0,,,1,
610,1119,Gerrard St East  at Glenmount Park Rd,,43.682773,-79.305845,,,0,,,2,
611,5212,Lansdowne Ave at College St,,43.651115,-79.440132,,,0,,,1,
612,1383,Neilson Rd at Keeler Blvd,,43.790075,-79.211457,,,0,,,1,
613,13665,Markham Rd at Golden Ave,,43.848191,-79.253938,,,0,,,1,
614,6763,Pharmacy Ave at Opposite Walkway to Crayford Dr,,43.813902,-79.335235,,,0,,,1,
615,6977,Royal York Rd at Cavell Ave South Side,,43.614676,-79.497843,,,0,,,1,
616,8846,Wilson Ave at Clyde Ave West Side,,43.738736,-79.427049,,,0,,,1,
617,3278,Opposite 1686 Albion Rd,,43.742378,-79.597507,,,0,,,1,
618,5396,Lawrence Ave West at Pine St,,43.702096,-79.508129,,,0,,,2,
619,1730,Bayview Ave at Parkhurst Blvd North Side,,43.708992,-79.376295,,,0,,,2,
620,7346,Spadina Ave at Front St West North Side,,43.643182,-79.394027,,,0,,,1,
621,8265,Steeles Ave West at Carpenter Rd West Side,,43.792072,-79.448117,,,0,,,1,
623,2472,Faywood Blvd at Reiner Rd,,43.749609,-79.450079,,,0,,,1,
624,5923,O'Connor Dr at Cranborne Ave,,43.723135,-79.302819,,,0,,,1,
625,9823,Steeles Ave West at Martin Grove Rd,,43.758023,-79.60324,,,0,,,1,
627,2828,Lesmill Rd at Duncan Mill Rd,,43.760484,-79.358302,,,0,,,1,
628,9277,Drewry Ave at Marathon Cres (East),,43.78207,-79.440435,,,0,,,1,
632,85,4979 Bathurst St,,43.775615,-79.443268,,,0,,,1,
634,3050,Queen St East at Jarvis St,,43.653602,-79.373383,,,0,,,2,
635,3217,Yonge St at Charles St West,,43.668841,-79.386282,,,0,,,1,
636,8569,Warden Ave at Glen Springs Dr,,43.804646,-79.320021,,,0,,,1,
637,5743,Midland Ave at Silver Star Blvd,,43.807186,-79.288962,,,0,,,1,
638,10555,Warden Ave at Bridge to Markham Theatre,,43.858114,-79.334684,,,0,,,1,
640,6926,The Queensway at Zorra St,,43.621791,-79.522414,,,0,,,1,
641,1810,Cummer Ave at Leslie St,,43.801133,-79.370964,,,0,,,1,
642,5733,Midland Ave at Progress Ave,,43.772736,-79.272762,,,0,,,1,
643,10629,North Queen St at Index Rd West Side,,43.619313,-79.555066,,,0,,,1,
645,5209,533 Lansdowne Ave,,43.655682,-79.441766,,,0,,,1,
646,14,Anglesey Blvd at Pinehurst Cres East Side,,43.6631,-79.524373,,,0,,,1,
647,4304,Kipling Ave at Eglinton Ave West,,43.677048,-79.550647,,,0,,,1,
648,711,Caledonia Rd at Castlefield Ave,,43.698567,-79.463624,,,0,,,1,
649,4830,Opposite 2278 Brimley Rd,,43.796697,-79.272467,,,0,,,1,
650,7992,Sentinel Rd at The Pond Rd South Side,,43.769379,-79.5024,,,0,,,1,
651,4415,Lawrence Ave East at Bennett Rd,,43.773036,-79.166039,,,0,,,1,
652,1746,The Bridle Path at Lawrence Ave East,,43.733152,-79.364427,,,0,,,1,
653,3139,555 Trethewey Dr,,43.696575,-79.491082,,,0,,,1,
654,8410,Vaughan Rd at Humewood Dr,,43.688739,-79.428738,,,0,,,1,
655,1024,Dupont St at Manning Ave,,43.672342,-79.418331,,,0,,,1,
656,149,Bathurst St at Harbord St,,43.661614,-79.409887,,,0,,,2,
657,7563,Birchmount Rd at Kingston Rd North Side,,43.693823,-79.262534,,,0,,,1,
658,7029,Royal York Rd at Renault Cres North Side,,43.686157,-79.52813,,,0,,,1,
659,517,Bloor St West at Grace St,,43.663363,-79.418948,,,0,,,1,
660,2722,Islington Ave at Jutland Rd,,43.629036,-79.517124,,,0,,,1,
661,916,Danforth Ave at Woodington Ave,,43.684044,-79.320702,,,0,,,1,
662,3636,Gateway Blvd South Side at Grenoble Dr South Side,,43.711661,-79.330127,,,0,,,1,
663,9272,Drewry Ave at Hilda Ave,,43.785736,-79.42395,,,0,,,1,
664,2216,The East Mall at Rathburn Rd,,43.654763,-79.563999,,,0,,,1,
665,2620,Finch Ave West at Milvan Dr,,43.750105,-79.552105,,,0,,,1,
666,413,Birchmount Rd at Flora Dr,,43.741996,-79.282498,,,0,,,1,
670,5043,East Ave at Wheeling Dr,,43.782809,-79.132408,,,0,,,1,
672,2625,Finch Ave West at Romfield Lane,,43.762438,-79.493647,,,0,,,1,
674,1614,University Ave at College St - Queen's Park Station,,43.659717,-79.390178,,,0,,,1,
675,8299,Steeles Ave West at Yonge St - Centerpoint Mall,,43.797286,-79.422816,,,0,,,1,
676,6303,80 Coe Hill Dr,,43.640484,-79.472043,,,0,,,2,
677,1806,Cummer Ave at Conacher Dr,,43.791653,-79.396537,,,0,,,1,
679,1486,Rathburn Rd at Kipling Ave,,43.659715,-79.543335,,,0,,,1,
680,2403,Eglinton Ave West at Royal York Rd,,43.68247,-79.526336,,,0,,,1,
681,13322,193 Morningview Trail,,43.818227,-79.199824,,,0,,,1,
682,7751,24 Fenmar Dr,,43.758823,-79.537655,,,0,,,2,
683,836,College St at Lansdowne Ave,,43.651168,-79.439866,,,0,,,2,
684,2260,Eglinton Ave East at Danforth Rd,,43.737338,-79.245756,,,0,,,1,
685,122,Bathurst St at Dewlane Dr,,43.78586,-79.445832,,,0,,,1,
686,1233,Lawrence Ave East at Weybourne Cres East Side,,43.725694,-79.399003,,,0,,,2,
687,11569,Thistle Down Blvd at Dashwood Cres (South),,43.740063,-79.556304,,,0,,,1,
689,2024,Dufferin St at Bridgeland Ave South Side,,43.726345,-79.457682,,,0,,,1,
690,11080,Opposite 100 Carrier Dr,,43.739311,-79.612839,,,0,,,1,
691,3016,19 Park Lane Cir,,43.735003,-79.375792,,,0,,,2,
695,1957,Opposite 1450 Don Mills Rd,,43.752754,-79.346954,,,0,,,1,
696,5115,Hambly Ave at Queen St East North Side,,43.670942,-79.296867,,,0,,,1,
697,2310,Eglinton Ave East at Sinnott Rd,,43.72919,-79.280808,,,0,,,1,
698,6690,Pharmacy Ave at Denton Ave,,43.694401,-79.284381,,,0,,,1,
699,7245,Sheppard Ave East at Settlers Rd,,43.774798,-79.326438,,,0,,,1,
700,1713,Bayview Ave at Blythwood Rd,,43.720818,-79.378698,,,0,,,1,
701,9062,Yonge St at Woodlawn Ave East,,43.683811,-79.392236,,,0,,,1,
702,9400,Evans Ave at Islington Ave,,43.618189,-79.511567,,,0,,,1,
703,3948,Judson St at Horner Ave,,43.612349,-79.515013,,,0,,,1,
705,154,1138 Bathurst St,,43.675365,-79.415294,,,0,,,1,
706,9414,Victoria Park Ave at Woodale Ave,,43.683422,-79.285188,,,0,,,2,
707,3236,Yonge St at Opposite College Park,,43.660008,-79.3824,,,0,,,1,
708,7124,Senlac Rd at Lurgan Dr,,43.774582,-79.429513,,,0,,,1,
709,8369,Toba Dr at Fifeshire Rd West Side,,43.756369,-79.389999,,,0,,,2,
710,4981,Dixon Rd at Tamarack Cir,,43.698427,-79.539973,,,0,,,1,
711,7970,Military Trail at Bobmar Rd,,43.782638,-79.177488,,,0,,,2,
712,5479,Leslie St at Steeles Ave East South Side,,43.807738,-79.372397,,,0,,,1,
713,345,Bellamy Rd North at Brimorton Dr,,43.767241,-79.238936,,,0,,,1,
714,10012,McCowan Rd at 14Th Ave,,43.849399,-79.279883,,,0,,,1,
715,1065,Flint Rd at Supertest Rd,,43.775121,-79.481022,,,0,,,2,
716,3172,William R Allen Rd at Sheppard Ave West,,43.750021,-79.463105,,,0,,,1,
717,7197,Sheppard Ave East at Kennedy Rd,,43.783432,-79.288075,,,0,,,1,
718,3828,Islington Ave at Rathburn Rd South Side,,43.662127,-79.531147,,,0,,,1,
719,5194,Lake Shore Blvd West at Norris Cres,,43.610699,-79.489978,,,0,,,1,
720,7962,McRae Dr at Rumsey Rd,,43.707391,-79.367245,,,0,,,1,
721,4636,St Regis Cres North at Bakersfield St,,43.75704,-79.481072,,,0,,,2,
722,8793,Willowdale Ave at Byng Ave,,43.778044,-79.405499,,,0,,,1,
723,6488,Kingston Rd at Lawrence Ave East,,43.767363,-79.189589,,,0,,,1,
724,315,Bayview Ave at Ruddington Dr,,43.787893,-79.392586,,,0,,,1,
725,10601,Kennedy Rd at Perthshire St,,43.809073,-79.300661,,,0,,,1,
727,6153,Victoria Park Ave at Eglinton Ave East,,43.724094,-79.302236,,,0,,,1,
728,10292,Finchdene Sq (East) at Torham Pl South Side,,43.819452,-79.233233,,,0,,,1,
730,5598,Martin Grove Rd at Belfield Rd,,43.702095,-79.575866,,,0,,,1,
731,8035,Port Union Rd at Clappison Blvd,,43.7815,-79.137591,,,0,,,1,
732,8791,Willowdale Ave at Bishop Ave North Side,,43.7837,-79.407812,,,0,,,2,
734,6373,Elm Ave at Sherbourne St,,43.675161,-79.377707,,,0,,,2,
735,8108,Sloane Ave at Kenewen Crt,,43.734144,-79.311312,,,0,,,1,
736,8236,Steeles Ave East at Tarbert Rd,,43.804084,-79.392106,,,0,,,1,
738,1285,McCowan Rd at Anson Ave,,43.72664,-79.233247,,,0,,,2,
739,7304,Sheppard Ave West at Yeomans Rd East Side,,43.754366,-79.443496,,,0,,,1,
740,3330,Belfield Rd at C.N. West Spur,,43.699972,-79.583628,,,0,,,1,
742,762,Cordova Ave at Central Park Roadway,,43.647886,-79.52675,,,0,,,1,
743,10545,Warden Ave at Glencove Dr,,43.859654,-79.334719,,,0,,,1,
744,6396,Foxwell St at Jane St,,43.671507,-79.493975,,,0,,,1,
745,4605,Spadina Rd at Old Forest Hill Rd,,43.699125,-79.417129,,,0,,,1,
746,4224,Kingston Rd at Fenwood Heights West Side,,43.727383,-79.230088,,,0,,,1,
747,3114,Sheppard Ave West at Wilson Heights Blvd East Side,,43.751748,-79.4556,,,0,,,1,
748,2295,Eglinton Ave East at Mt Pleasant Rd,,43.708536,-79.389991,,,0,,,1,
749,1289,McCowan Rd at Commander Blvd North Side,,43.796506,-79.261528,,,0,,,1,
750,10789,Oriole Pkwy at College View Ave South Side,,43.702134,-79.405063,,,0,,,2,
751,4140,King St East at Parliament St,,43.652556,-79.363371,,,0,,,1,
752,3579,1111 Finch Ave West,,43.767047,-79.474414,,,0,,,1,
755,8709,Weston Rd at Coronado Crt,,43.740185,-79.539566,,,0,,,1,
756,4991,Dixon Rd at Kipling Ave,,43.694487,-79.558316,,,0,,,1,
757,36,Annette St at Keele St West Side,,43.663871,-79.46439,,,0,,,1,
758,6313,130 Commissioners St,,43.647582,-79.347458,,,0,,,1,
759,11572,Thistle Down Blvd at Bridgenorth Cres,,43.738805,-79.552533,,,0,,,1,
761,13480,McCowan Rd at 14Th Ave North Side,,43.850231,-79.279673,,,0,,,1,
762,1005,Dupont St at Dufferin St,,43.66854,-79.438783,,,0,,,1,
763,5235,Lawrence Ave East at Ben Stanton Blvd East Side,,43.756956,-79.238185,,,0,,,1,
764,9318,Broadview Ave at Mountstephen St,,43.664096,-79.35214,,,0,,,2,
766,9382,Davenport Rd at Bathurst St,,43.676626,-79.415962,,,0,,,1,
767,4990,Dixon Rd at Kipling Ave,,43.694072,-79.558873,,,0,,,1,
768,10616,Jane St at Sheppard Ave West South Side,,43.738911,-79.513248,,,0,,,1,
769,5642,Martin Grove Rd at Ronson Dr,,43.693836,-79.572034,,,0,,,1,
770,1968,Don Mills Rd at Seneca Hill Dr,,43.790373,-79.354328,,,0,,,1,
771,6465,Huntingwood Dr at Victoria Park Ave East Side,,43.780401,-79.32483,,,0,,,2,
772,5100,Gary Dr at Langside Ave,,43.711073,-79.518539,,,0,,,1,
774,3829,Islington Ave at Rathburn Rd,,43.662257,-79.530948,,,0,,,1,
777,3275,Albion Rd at Martin Grove Rd,,43.742028,-79.593932,,,0,,,1,
778,7997,O'Connor Dr at Gardens Cres,,43.708139,-79.310704,,,0,,,1,
779,2733,Islington Ave at Van Dusen Blvd,,43.641412,-79.521937,,,0,,,1,
780,3000,Pape Ave at Mortimer Ave,,43.685846,-79.347563,,,0,,,1,
781,4679,Tuscan Gate at St Regis Cres (South) South Side,,43.75402,-79.483974,,,0,,,1,
782,2861,Markham Rd at Markanna Dr,,43.740623,-79.217674,,,0,,,1,
783,4576,Roncesvalles Ave at Grenadier Rd,,43.648639,-79.449872,,,0,,,2,
784,8620,Welland Ave at Heath St East,,43.692921,-79.38026,,,0,,,2,
786,2889,McNicoll Ave at Hines Dr,,43.801462,-79.348424,,,0,,,1,
787,5497,Lloyd Manor Rd at Firwood Cres,,43.665524,-79.550939,,,0,,,1,
788,7312,Sherbourne St at Dundas St East North Side,,43.658793,-79.371128,,,0,,,1,
789,11288,Humberwood Blvd at Arborwood Dr,,43.723541,-79.618849,,,0,,,1,
790,1793,Coxwell Ave at Hanson St,,43.679678,-79.322,,,0,,,1,
792,4536,80 Progress Ave,,43.771997,-79.275892,,,0,,,1,
794,2015,Dufferin St at Alma Ave,,43.644682,-79.429661,,,0,,,1,
795,2879,McNicoll Ave at Birchmount Rd,,43.808458,-79.311412,,,0,,,1,
796,2374,Eglinton Ave West at Lascelles Blvd East Side,,43.705641,-79.403202,,,0,,,1,
797,5308,Lawrence Ave East at Opposite Cedarbrae Mall,,43.758785,-79.230855,,,0,,,1,
798,2942,Morningside Ave at Ellesmere Rd,,43.785187,-79.193109,,,0,,,1,
799,6831,Queen St West at Dovercourt Rd,,43.643393,-79.422528,,,0,,,1,
800,7163,Sheppard Ave East at Brimley Rd East Side,,43.787581,-79.267739,,,0,,,1,
802,291,Bayview Ave at Fifeshire Rd (South) South Side,,43.75459,-79.385637,,,0,,,1,
803,8018,Parkview Hill Cres at Aspen Ave (North) East Side,,43.704395,-79.328255,,,0,,,1,
804,7956,MacPherson Ave at Spadina Rd,,43.675731,-79.407767,,,0,,,1,
805,6826,Queen St West at Augusta Ave,,43.647951,-79.399869,,,0,,,1,
806,8241,Steeles Ave East at Victoria Park Ave West Side,,43.815581,-79.342165,,,0,,,1,
807,8685,451 The West Mall,,43.646775,-79.567698,,,0,,,1,
808,13640,Main St Markham North at Highway 7,,43.873549,-79.259546,,,0,,,1,
809,7203,Sheppard Ave East at Leslie St East Side - North York Genera,,43.771591,-79.363431,,,0,,,1,
810,831,College St at Euclid Ave,,43.655822,-79.411298,,,0,,,2,
811,5284,Lawrence Ave East at Manse Rd East Side,,43.770643,-79.175848,,,0,,,1,
812,2123,Dundas St East at Ontario St,,43.658961,-79.368357,,,0,,,2,
813,2898,McNicoll Ave at Myers Lane,,43.803048,-79.367798,,,0,,,1,
814,1464,Queen's Park Cres East at Wellesley St West,,43.663459,-79.390475,,,0,,,1,
815,3289,Alliance Ave at Jane St,,43.676316,-79.495269,,,0,,,1,
816,842,College St at Rusholme Park Cres,,43.652817,-79.429769,,,0,,,2,
817,7064,Runnymede Rd at Maher Ave,,43.662105,-79.480571,,,0,,,1,
818,1029,Dupont St at Symington Ave,,43.665626,-79.451366,,,0,,,1,
819,7560,Birchmount Rd at St Clair Ave East South Side,,43.713521,-79.270951,,,0,,,1,
820,10919,Steeles Ave East at McCowan Rd,,43.830837,-79.275525,,,0,,,1,
821,3796,Islington Ave at Fordwich Cres,,43.727108,-79.560871,,,0,,,1,
822,8002,Old Kingston Rd at Military Trail,,43.782122,-79.172674,,,0,,,2,
823,6005,Progress Ave at Markham Rd West Side,,43.781656,-79.234801,,,0,,,1,
824,5401,Lawrence Ave West at Royal York Rd,,43.696286,-79.532489,,,0,,,2,
825,2932,345 Morningside Ave,,43.775468,-79.18886,,,0,,,1,
826,7980,Millwood Rd at Randolph Rd,,43.702915,-79.362657,,,0,,,1,
827,5324,Lawrence Ave East at Underhill Dr,,43.740918,-79.324491,,,0,,,1,
828,33,Annette St at Indian Road Cres,,43.663915,-79.460776,,,0,,,1,
829,13528,Major Mackenzie Dr East at McCowan Rd,,43.903281,-79.293772,,,0,,,1,
830,9866,Sheffield St at Hafis Rd,,43.706257,-79.47105,,,0,,,1,
831,4940,Danforth Rd at Carslake Cres South,,43.746255,-79.244464,,,0,,,1,
832,893,Danforth Ave at Greenwood Ave,,43.681564,-79.332253,,,0,,,1,
833,12033,McNicoll Ave at Midland Ave,,43.814703,-79.291996,,,0,,,1,
834,9471,Ellesmere Rd at Calthorpe Ave,,43.788586,-79.180524,,,0,,,1,
835,7804,Harbord St at Brunswick Ave,,43.662181,-79.406126,,,0,,,1,
836,7224,Sheppard Ave East at Palmdale Dr,,43.77783,-79.311293,,,0,,,1,
840,11276,1300 Leslie St,,43.731982,-79.355501,,,0,,,1,
841,8445,Victoria Park Ave at Curlew Dr South Side,,43.747467,-79.311799,,,0,,,1,
842,2470,Faywood Blvd at Goodwill Ave,,43.737002,-79.447053,,,0,,,1,
843,9345,Steeles Ave East at Mountcastle Gate,,43.820394,-79.320622,,,0,,,1,
844,9458,Secord Ave at Palmer Ave East Side,,43.693011,-79.300461,,,0,,,2,
845,1595,Steeles Ave West at Founders Rd - York University,,43.779428,-79.504234,,,0,,,1,
848,8380,Underhill Dr at Cassandra Blvd (North) South Side,,43.75243,-79.326374,,,0,,,1,
849,112,Bathurst St at Covington Rd,,43.721136,-79.430335,,,0,,,1,
850,11995,Mt Pleasant Rd at Sherwood Ave,,43.714879,-79.392503,,,0,,,1,
851,9271,Drewry Ave at Fairchild Ave,,43.786246,-79.421537,,,0,,,1,
852,8599,Warden Ave at Sheppard Ave East,,43.77887,-79.308173,,,0,,,1,
853,4104,Kennedy Rd at Norcap Ave,,43.797157,-79.294171,,,0,,,1,
854,525,Bloor St West at Indian Rd,,43.655222,-79.457156,,,0,,,1,
855,560,Opposite 4345 Bloor St West,,43.631124,-79.577346,,,0,,,1,
856,1726,Bayview Ave at Lawrence Ave East - York University Glendon C,,43.727267,-79.381567,,,0,,,1,
858,5534,Main St at Kingston Rd,,43.67926,-79.298179,,,0,,,1,
859,7359,St Clair Ave West at Britannia Ave,,43.669394,-79.481314,,,0,,,1,
860,10631,North Queen St at Nova Rd,,43.616293,-79.557141,,,0,,,1,
862,308,3292 Bayview Ave,,43.789946,-79.393248,,,0,,,1,
863,4145,King St East at Sherbourne St,,43.651169,-79.368367,,,0,,,1,
864,6050,Shaw St at Adelaide St West,,43.642626,-79.415367,,,0,,,1,
865,5635,Martin Grove Rd at Rampart Rd,,43.733945,-79.590127,,,0,,,1,
866,4062,Kennedy Rd at Antrim Cres South Side,,43.771331,-79.283286,,,0,,,1,
868,6718,Pharmacy Ave at Janet Blvd,,43.74203,-79.304235,,,0,,,1,
869,7073,Runnymede Rd at Webb Ave,,43.658554,-79.479255,,,0,,,2,
870,11985,Spadina Ave at Richmond St West,,43.6476,-79.395827,,,0,,,1,
872,8905,Wilson Heights Blvd at Waterloo Ave,,43.75522,-79.459703,,,0,,,1,
873,5248,Lawrence Ave East at Centennial Rd,,43.777575,-79.145968,,,0,,,1,
874,5740,Midland Ave at Salome Dr,,43.781639,-79.276398,,,0,,,1,
875,1458,Queen's Park at Charles St West - Museum Station,,43.667095,-79.393584,,,0,,,1,
876,11716,Eglinton Ave West at Walkway to Emmett Ave,,43.684593,-79.508136,,,0,,,1,
877,840,College St at Ossington Ave,,43.654475,-79.422554,,,0,,,2,
878,2528,Finch Ave East at Maxome Ave,,43.783459,-79.399176,,,0,,,1,
879,6354,East Ave at Clark Secor Pl North Side,,43.78995,-79.135406,,,0,,,2,
880,9964,Old Dundas St at Humber Hill Ave,,43.6645,-79.501435,,,0,,,1,
881,6699,Pharmacy Ave at Ellesmere Rd,,43.759303,-79.3104,,,0,,,1,
882,11076,209 Carrier Dr,,43.747234,-79.615107,,,0,,,1,
883,11782,Parkside Dr at Howard Park Ave,,43.648781,-79.457901,,,0,,,1,
884,1661,Wilson Ave at King High Ave,,43.735702,-79.442466,,,0,,,1,
885,6067,Sheppard Ave West at Jane St,,43.73919,-79.513494,,,0,,,1,
886,4564,Rockcliffe Blvd at Caesar Ave South Side,,43.678867,-79.490268,,,0,,,1,
887,1865,Davisville Ave at Acacia Rd,,43.699932,-79.389138,,,0,,,1,
888,6953,Rockcliffe Blvd at Alliance Ave,,43.676751,-79.489207,,,0,,,1,
889,3639,Gervais Dr at Wynford Dr South Side,,43.723081,-79.336445,,,0,,,1,
890,6123,St Clair Ave East at Pharmacy Ave East Side,,43.709822,-79.290466,,,0,,,1,
891,4322,Kipling Ave at Hinton Rd,,43.725707,-79.573246,,,0,,,1,
892,381,Birchmount Rd at Bibury Gate,,43.829409,-79.317494,,,0,,,1,
893,4386,Kipling Ave at Westhumber Blvd,,43.72821,-79.574872,,,0,,,1,
894,2877,McNicoll Ave at Bedle Ave,,43.799485,-79.35716,,,0,,,1,
895,6007,Progress Ave at Roadway to Centennial College,,43.783526,-79.231618,,,0,,,1,
897,1570,St Clair Ave East at Midland Ave,,43.71894,-79.251064,,,0,,,2,
898,14264,150 Staines Rd West Side,,43.822964,-79.219024,,,0,,,1,
899,2902,McNicoll Ave at Picola Crt,,43.801676,-79.348388,,,0,,,1,
901,3846,Islington Ave at Summitcrest Dr,,43.683282,-79.540697,,,0,,,1,
902,3655,Glencairn Ave at Ennerdale St,,43.706808,-79.455427,,,0,,,2,
904,11451,Ancaster Rd at Powell Rd South Side,,43.73656,-79.467968,,,0,,,2,
905,5457,Leslie St at Marowyne Dr,,43.774721,-79.364412,,,0,,,1,
906,2476,Ferris Rd at Dawes Rd West Side,,43.706312,-79.296023,,,0,,,2,
907,8559,Warden Ave at Eglinton Ave East North Side,,43.728424,-79.287699,,,0,,,1,
908,9131,Finch Ave East at Yonge St - Finch Station,,43.780191,-79.414106,,,0,,,1,
909,7040,Royal York Rd at Yorkleigh Ave,,43.694162,-79.531677,,,0,,,1,
910,9023,Yonge St at Lytton Blvd,,43.716726,-79.400585,,,0,,,1,
911,9805,McCowan Rd at Alton Towers Cir (South),,43.822377,-79.273762,,,0,,,1,
913,9661,Duncan Mill Rd at Valleybrook Dr,,43.761898,-79.352804,,,0,,,1,
914,3892,Jane St at Firgrove Cres (North) South Side,,43.754548,-79.517122,,,0,,,1,
916,2712,Islington Ave at Albion Rd,,43.7377,-79.565693,,,0,,,1,
917,10715,St Clair Ave East at O'Connor Dr East Side,,43.705462,-79.312134,,,0,,,1,
918,7311,Sherbourne St at Carlton St,,43.663382,-79.373214,,,0,,,1,
919,1808,Cummer Ave at Craigmont Dr,,43.797161,-79.379136,,,0,,,1,
920,1712,Bayview Ave at Blythwood Rd South Side,,43.720431,-79.378945,,,0,,,2,
921,1942,Don Mills Rd at Green Belt Dr North Side,,43.727486,-79.340618,,,0,,,1,
922,7503,Avoca Ave at Pleasant Blvd South Side,,43.688534,-79.389352,,,0,,,2,
923,2905,McNicoll Ave at Victoria Park Ave  East Side,,43.804215,-79.335379,,,0,,,1,
924,639,Brimley Rd at Lawrence Ave East,,43.753732,-79.255604,,,0,,,1,
925,3888,Jane St at Exbury Rd North Side,,43.729646,-79.510597,,,0,,,1,
927,8238,Steeles Ave East at Townsend Rd West Side,,43.811939,-79.358022,,,0,,,1,
928,8866,Wilson Ave at Julian Rd West Side - Humber River Hospital,,43.724669,-79.491492,,,0,,,1,
929,835,College St at Lansdowne Ave,,43.650681,-79.440227,,,0,,,2,
930,9152,Keele St at Lawrence Ave West,,43.708825,-79.478254,,,0,,,1,
931,4919,Craigton Dr at Rannock St East Side,,43.727717,-79.300106,,,0,,,1,
932,6987,Royal York Rd at Dalesford Rd,,43.624359,-79.501631,,,0,,,1,
933,833,College St at Grace St,,43.654987,-79.415437,,,0,,,2,
934,34,Annette St at Jane St East Side,,43.658296,-79.487694,,,0,,,1,
935,6830,Queen St West at Claremont St,,43.646157,-79.409404,,,0,,,1,
936,5443,Leslie St at Finch Ave East,,43.790417,-79.368339,,,0,,,1,
937,1922,Don Mills Rd at The Donway East (South) North Side,,43.732636,-79.342026,,,0,,,1,
938,1375,Neilson Rd at Crow Trail,,43.812353,-79.225946,,,0,,,1,
939,5776,Mortimer Ave at Donlands Ave,,43.687502,-79.340447,,,0,,,1,
940,767,Chaplin Cres at Lascelles Blvd,,43.698153,-79.4006,,,0,,,1,
942,9478,Cosburn Ave at Binswood Ave,,43.694898,-79.324088,,,0,,,1,
943,2235,Eglinton Ave East at Banff Rd,,43.710122,-79.38211,,,0,,,1,
946,5913,Oakwood Ave at Rosemount Ave,,43.678178,-79.435399,,,0,,,1,
947,7158,Sheppard Ave East at Boydwood Lane,,43.80462,-79.15811,,,0,,,1,
948,7622,Clayson Rd at Wilson Ave,,43.718465,-79.523435,,,0,,,1,
950,9218,Arleta Ave at John Lindsay Crt,,43.745902,-79.502119,,,0,,,2,
951,4290,Kipling Ave at Birmingham St,,43.600828,-79.518202,,,0,,,1,
952,5031,Dundas St West at Windermere Ave,,43.665544,-79.48605,,,0,,,1,
953,14085,Nugget Ave at Markham Rd,,43.798356,-79.241759,,,0,,,1,
954,4026,Keele St at Rustic Rd,,43.717966,-79.480244,,,0,,,1,
955,9021,Yonge St at Lord Seaton Rd South Side,,43.752127,-79.408292,,,0,,,1,
956,6017,Rogers Rd at Prospect Cemetery,,43.683669,-79.45434,,,0,,,2,
957,9016,Yonge St at King St West - King Station,,43.649249,-79.378022,,,0,,,1,
958,9091,Kodiak Cres at Sheppard Ave West,,43.752079,-79.467028,,,0,,,1,
959,9176,Steeles Ave East Loop,,43.798341,-79.417889,,,0,,,1,
960,5165,Lake Shore Blvd West at Thirty Seventh St,,43.593494,-79.537978,,,0,,,1,
962,2597,Finch Ave West at Elana Dr,,43.756605,-79.520828,,,0,,,1,
963,12077,Steeles Ave East at Walkway to Norn Cres,,43.832317,-79.270029,,,0,,,1,
964,8615,Warden Ave at Walbon Rd,,43.739791,-79.292609,,,0,,,1,
966,9064,Yonge St at Yonge Blvd South Side,,43.733994,-79.404613,,,0,,,1,
967,11079,145 Carrier Dr,,43.741627,-79.613925,,,0,,,1,
968,2218,The East Mall at Talgarth Rd,,43.662652,-79.570684,,,0,,,2,
969,1411,O'Connor Dr at Derwyn Rd,,43.696688,-79.334719,,,0,,,1,
970,14144,Woodbine Ave at Queen St East,,43.668861,-79.305943,,,0,,,1,
971,1151,Howard Park Ave at Indian Rd,,43.650763,-79.454889,,,0,,,2,
972,4635,St Regis Cres North at Bakersfield St West Side,,43.757032,-79.481627,,,0,,,1,
975,12689,Oak St at Weston Rd East Side,,43.707912,-79.53278,,,0,,,1,
976,4956,Danforth Rd at Magnolia Ave,,43.722968,-79.255569,,,0,,,1,
977,4795,Avenue Rd at St Clements Ave,,43.710222,-79.41096,,,0,,,1,
978,7070,Runnymede Rd at St John's Rd,,43.663697,-79.48124,,,0,,,1,
979,8269,Steeles Ave West at Dufferin St,,43.787469,-79.469755,,,0,,,1,
980,5341,Lawrence Ave West at Benton Rd,,43.710536,-79.471373,,,0,,,2,
981,12141,Grand Ave at Manitoba St South Side,,43.623181,-79.492572,,,0,,,1,
982,2280,Eglinton Ave East at Kennedy Rd,,43.732413,-79.267746,,,0,,,1,
983,1023,Dupont St at Perth Ave,,43.66531,-79.45294,,,0,,,1,
984,11236,Giltspur Dr at Magellan Dr,,43.735386,-79.50836,,,0,,,1,
985,346,Bellamy Rd North at Brimorton Dr,,43.767658,-79.239344,,,0,,,1,
986,9590,McLevin Ave at Pennyhill Dr,,43.810574,-79.217599,,,0,,,1,
988,2378,Eglinton Ave West at Jimmy Wisdom Way,,43.696414,-79.447135,,,0,,,1,
989,1563,St Clair Ave East at Kennedy Rd,,43.716705,-79.261083,,,0,,,2,
990,8090,Sentinel Rd at Murray Ross Pkwy,,43.764562,-79.50104,,,0,,,1,
992,1200,Aukland Rd at Bloor St West South Side,,43.640146,-79.540452,,,0,,,1,
993,8373,Tournament Dr at Upper Highland Cres West Side,,43.750932,-79.399008,,,0,,,1,
996,5632,Martin Grove Rd at Porterfield Rd,,43.722298,-79.585192,,,0,,,1,
997,13561,Sheppard Ave East at Barberry Pl,,43.767239,-79.385106,,,0,,,1,
998,8,Atkinson Ave at Rodeo Dr,,43.808738,-79.442506,,,0,,,2,
999,7196,Sheppard Ave East at Kennedy Rd,,43.783046,-79.288704,,,0,,,1,
1000,5656,Martin Grove Rd at The Westway,,43.683182,-79.566907,,,0,,,1,
1001,3614,685 Finch Ave West,,43.770935,-79.456814,,,0,,,1,
1002,11800,McCowan Rd at Coleraine Ave,,43.838225,-79.276865,,,0,,,1,
1003,5246,Lawrence Ave East at Carnforth Rd,,43.741633,-79.31401,,,0,,,1,
1004,3735,Hullmar Dr at Gosford Blvd,,43.761854,-79.521309,,,0,,,1,
1005,5603,Opposite 1915 Martin Grove Rd,,43.746054,-79.596357,,,0,,,1,
1006,9296,International Blvd at Galaxy Blvd,,43.678068,-79.585698,,,0,,,1,
1007,11526,Royalcrest Rd at Martin Grove Rd,,43.752146,-79.599639,,,0,,,1,
1009,1762,Broadview Ave at Millbrook Cres,,43.672144,-79.355165,,,0,,,2,
1010,1124,Gerrard St East  at Main St,,43.683838,-79.300386,,,0,,,2,
1011,10995,Southport St at Windermere Pl,,43.638188,-79.472291,,,0,,,1,
1012,2006,Driftwood Ave at Stong Crt,,43.762084,-79.51697,,,0,,,1,
1013,2515,Finch Ave East at Kennedy Rd,,43.801487,-79.29616,,,0,,,1,
1014,4690,Victoria Park Ave at Danforth Ave,,43.691357,-79.288525,,,0,,,1,
1015,2622,Finch Ave West at Oakdale Rd  - Humber Reactivation Care,,43.755759,-79.524466,,,0,,,1,
1016,5816,Mt Pleasant Rd at Erskine Ave,,43.712508,-79.391602,,,0,,,1,
1017,8226,Steeles Ave East at Laureleaf Rd,,43.805432,-79.385852,,,0,,,1,
1018,212,Bathurst St at Ulster St,,43.65973,-79.408924,,,0,,,2,
1019,3238,Yonge St at Queen St East - Queen Station,,43.652319,-79.379085,,,0,,,1,
1020,2911,Midland Ave at Aylesworth Ave South Side,,43.713481,-79.249277,,,0,,,1,
1021,4518,Overlea Blvd at Thorncliffe Park Dr (East) West Side,,43.707457,-79.344198,,,0,,,1,
1022,11740,Birmingham St at Eighth St,,43.602865,-79.507664,,,0,,,1,
1023,4794,Avenue Rd at Roselawn Ave,,43.70848,-79.410254,,,0,,,1,
1024,9276,Drewry Ave at Lister Dr,,43.782779,-79.43732,,,0,,,1,
1025,4235,Kingston Rd at Manderley Dr,,43.688668,-79.269367,,,0,,,1,
1026,8923,Woodbine Ave at Kingston Rd,,43.674044,-79.30805,,,0,,,2,
1029,4777,Avenue Rd at Fairlawn Ave,,43.727986,-79.418035,,,0,,,1,
1030,3653,Glencairn Ave at Englemount Ave,,43.710811,-79.435552,,,0,,,1,
1032,278,Bayview Ave at The Bridle Path,,43.738356,-79.382163,,,0,,,1,
1033,11601,Passmore Ave at Middlefield Rd,,43.827482,-79.265057,,,0,,,1,
1034,4070,Kennedy Rd at Bellbrook Rd,,43.798949,-79.294947,,,0,,,1,
1035,3619,Finch Ave W at Virgilwood Dr West Side - North York General,,43.772898,-79.448603,,,0,,,1,
1036,2053,Dufferin St at Glencairn Ave,,43.706896,-79.453031,,,0,,,1,
1037,8519,Victoria Park Ave at Valdane Dr,,43.718598,-79.299971,,,0,,,1,
1038,10730,Victoria Park Ave at Cassandra Blvd,,43.754442,-79.314192,,,0,,,1,
1039,2486,Finch Ave East at Baylawn Dr,,43.803284,-79.28868,,,0,,,1,
1040,3411,Chaplin Cres at Eglinton Ave West,,43.702794,-79.417758,,,0,,,1,
1041,3914,Jane St at Patika Ave,,43.705192,-79.504228,,,0,,,2,
1042,6493,Kingston Rd at Military Trail,,43.781393,-79.169994,,,0,,,1,
1044,2211,The East Mall at Gordon Park Dr,,43.634103,-79.556423,,,0,,,1,
1045,882,Danforth Ave at Coxwell Ave,,43.683222,-79.323734,,,0,,,1,
1046,7308,Sherbourne St at Bloor St East South Side - Sherbourne Stati,,43.672008,-79.376834,,,0,,,1,
1047,769,Christie St at Barton Ave South Side,,43.66632,-79.419594,,,0,,,1,
1048,2541,Opposite 636 Finch Ave East (Plaza),,43.787498,-79.380413,,,0,,,1,
1049,9333,Markham Rd at Finch Ave East,,43.812817,-79.242767,,,0,,,1,
1050,8984,Yonge St at Empress Ave - North York Centre Station,,43.769149,-79.4127,,,0,,,1,
1051,3833,Islington Ave at Ridgevalley Cres North Side,,43.67211,-79.535377,,,0,,,1,
1053,2485,Finch Ave East at Baylawn Dr,,43.803004,-79.289136,,,0,,,1,
1054,1658,Wilson Ave at Faywood Blvd East Side,,43.734763,-79.445833,,,0,,,1,
1058,1815,Cummer Ave at Pineway Blvd,,43.79885,-79.375798,,,0,,,1,
1059,1594,Steeles Ave West at Founders Rd East Side - York University,,43.779212,-79.503758,,,0,,,1,
1060,1517,Royal York Rd at Lynngrove Ave,,43.651466,-79.513239,,,0,,,1,
1061,2621,Finch Ave West at Norfinch Dr  - Humber Reactivation Care,,43.756133,-79.524086,,,0,,,1,
1062,7654,Dufferin St at Martin Ross Ave,,43.775081,-79.468294,,,0,,,1,
1063,13626,Ridgecrest Rd at Wiltshire Dr,,43.89876,-79.303632,,,0,,,1,
1065,5789,Mortimer Ave at Logan Ave,,43.684951,-79.351821,,,0,,,2,
1066,10533,3325 Warden Ave,,43.814261,-79.324383,,,0,,,1,
1067,4163,King St West at Shaw St,,43.641529,-79.414775,,,0,,,2,
1068,2617,Finch Ave West at Martin Grove Rd,,43.736947,-79.591362,,,0,,,1,
1069,5241,Lawrence Ave East at Burnview Cres West Side,,43.756528,-79.241423,,,0,,,1,
1070,4223,Kingston Rd at Fenwood Heights,,43.727269,-79.229715,,,0,,,1,
1071,5955,Ossington Ave at Churchill Ave,,43.652123,-79.421898,,,0,,,2,
1072,11561,400 Evans Ave,,43.615254,-79.528238,,,0,,,1,
1073,9984,Opposite 150 Culford Rd,,43.705192,-79.487147,,,0,,,1,
1074,428,Birchmount Rd at L'Amoreaux Dr,,43.800672,-79.307267,,,0,,,2,
1075,6060,Sheppard Ave West at Arrow Rd,,43.735485,-79.529638,,,0,,,1,
1076,3092,195 Rexleigh Dr,,43.704609,-79.305535,,,0,,,2,
1077,198,Bathurst St at Shelborne Ave,,43.716134,-79.429129,,,0,,,1,
1078,12053,Progress Ave at Rosebank Dr North Side,,43.792409,-79.233987,,,0,,,1,
1079,8739,Weston Rd at Kenhar Dr,,43.761598,-79.544474,,,0,,,1,
1080,6683,Pharmacy Ave at Corinthian Blvd (North),,43.792891,-79.325151,,,0,,,1,
1081,1171,Jane St at Colbeck St,,43.653347,-79.486211,,,0,,,1,
1082,3977,Keele St at Diana Dr,,43.740992,-79.485359,,,0,,,1,
1083,2662,Grandravine Dr at Derrydown Rd,,43.75293,-79.491796,,,0,,,1,
1084,5356,Lawrence Ave West at Culford Rd East Side,,43.706314,-79.487335,,,0,,,1,
1085,9889,Lawson Rd at Wichey Rd,,43.789085,-79.143788,,,0,,,2,
1086,2209,The East Mall at Eglinton Ave West,,43.671689,-79.571002,,,0,,,1,
1087,265,Bay St at St Joseph St,,43.665791,-79.387868,,,0,,,1,
1088,424,Birchmount Rd at Highgate Dr,,43.826312,-79.317593,,,0,,,1,
1089,7388,Van Horne Ave at Hobart Dr,,43.788065,-79.349482,,,0,,,1,
1090,2763,Kennedy Rd at St Clair Ave East,,43.716745,-79.261559,,,0,,,1,
1091,9286,Drewry Ave at Lister Dr,,43.782537,-79.4377,,,0,,,1,
1092,5698,Midland Ave at Ellesmere Rd,,43.767566,-79.270917,,,0,,,1,
1093,7708,426 Ellesmere Rd,,43.762102,-79.297487,,,0,,,1,
1094,5655,Martin Grove Rd at Westhumber Blvd,,43.72593,-79.586467,,,0,,,1,
1095,10762,Dovercourt Rd at Dupont St,,43.669562,-79.432586,,,0,,,1,
1096,8728,Weston Rd at Habitant Dr,,43.745851,-79.540889,,,0,,,1,
1097,2257,Eglinton Ave East at Cedar Dr,,43.744094,-79.215486,,,0,,,1,
1098,2802,Kingston Rd at Woodbine Ave,,43.673673,-79.308088,,,0,,,1,
1099,1602,Steeles Ave West at Northwest Gate,,43.777918,-79.510766,,,0,,,1,
1100,299,2350 Bayview Ave - The Granite Club,,43.734133,-79.381593,,,0,,,1,
1102,9781,Steeles Ave East at Silver Star Blvd,,43.825065,-79.300444,,,0,,,1,
1103,11233,Northover St at Giltspur Dr,,43.738716,-79.500376,,,0,,,1,
1104,9998,McCowan Rd at Heritage Rd,,43.869608,-79.284966,,,0,,,1,
1106,2572,Finch Ave East at Wilfred Ave,,43.782645,-79.401995,,,0,,,1,
1107,8075,Rossdean Dr at Garyray Dr,,43.76913,-79.539739,,,0,,,1,
1108,11329,1315 and 1319 Neilson Rd,,43.807848,-79.219558,,,0,,,1,
1109,2562,5600 Finch Ave East,,43.813673,-79.240113,,,0,,,1,
1110,6154,Victory Cres at McNaughton Ave,,43.708724,-79.644832,,,0,,,2,
1111,8243,Steeles Ave East at Victoria Park Ave,,43.815376,-79.341773,,,0,,,1,
1112,71,Avenue Rd at St Clair Ave West,,43.686737,-79.401728,,,0,,,1,
1114,5777,Mortimer Ave at Donlands Ave,,43.687734,-79.339921,,,0,,,1,
1115,6984,Royal York Rd at Coney Rd,,43.634093,-79.505949,,,0,,,1,
1116,5323,Lawrence Ave East at Tremont Cres (West),,43.734868,-79.353681,,,0,,,2,
1117,13306,St Clair Ave West at Mould Ave,,43.668304,-79.486857,,,0,,,1,
1118,9994,McCowan Rd at Denison St,,43.841354,-79.277741,,,0,,,1,
1119,7069,Runnymede Rd at St Clair Ave West South Side,,43.668539,-79.483462,,,0,,,1,
1120,920,Danforth Ave at Coxwell Ave,,43.683471,-79.323473,,,0,,,1,
1122,13625,Strachan Ave at Canniff St,,43.641543,-79.411854,,,0,,,1,
1123,302,Bayview Ave at Hillcrest Ave,,43.77233,-79.389207,,,0,,,1,
1124,5718,Midland Ave at Lord Roberts Dr (South) South Side,,43.735772,-79.258784,,,0,,,1,
1125,480,Bloor St East at Jarvis St,,43.671706,-79.380383,,,0,,,1,
1126,3997,Keele St at Grandravine Dr,,43.752257,-79.488314,,,0,,,1,
1128,1113,Gerrard St East at Beaton Ave,,43.676047,-79.317086,,,0,,,2,
1129,5311,Lawrence Ave East at Prudential Dr East Side,,43.751064,-79.266658,,,0,,,1,
1130,5609,Martin Grove Rd at Eglinton Ave West,,43.674653,-79.563427,,,0,,,1,
1131,1209,Kennedy Rd at Mewburn Ave,,43.707574,-79.257757,,,0,,,1,
1132,5348,Lawrence Ave West at Brookview Dr,,43.718172,-79.434957,,,0,,,1,
1133,498,Bloor St West at Brunswick Ave,,43.665819,-79.407548,,,0,,,1,
1134,3849,Islington Ave at Titan Rd,,43.630726,-79.51757,,,0,,,1,
1135,8970,Yonge St at Church Ave,,43.773679,-79.413853,,,0,,,1,
1137,7695,Ellesmere Rd at McCowan Rd,,43.77237,-79.251159,,,0,,,1,
1138,6225,Albion Rd at Golfdown Dr West Side,,43.72375,-79.548765,,,0,,,1,
1141,8625,Wellesley St West at Bay St,,43.664214,-79.387412,,,0,,,1,
1142,3797,Islington Ave at Golfdown Dr,,43.720786,-79.557601,,,0,,,1,
1143,11235,Giltspur Dr at Peterdale Rd,,43.736269,-79.505942,,,0,,,1,
1144,1749,The Bridle Path at Saintfield Ave,,43.729123,-79.360337,,,0,,,1,
1147,8600,Warden Ave at Sherry Rd North Side,,43.723671,-79.285797,,,0,,,1,
1149,10269,Spanbridge Rd at Vicora Linkway,,43.712357,-79.324724,,,0,,,2,
1150,8426,2793 Victoria Park Ave,,43.78242,-79.326261,,,0,,,1,
1151,1660,Wilson Ave at King High Ave,,43.735406,-79.442947,,,0,,,1,
1152,11222,Northover St at Sheppard Ave West South Side,,43.74084,-79.501268,,,0,,,1,
1153,7177,Sheppard Ave East at Dean Park Rd,,43.806137,-79.18052,,,0,,,1,
1154,611,55 Bridgeland Ave,,43.726343,-79.460272,,,0,,,1,
1155,4709,Washburn Way at Sheppard Ave East,,43.796306,-79.22768,,,0,,,1,
1156,5787,Mortimer Ave at Linsmore Cres,,43.689143,-79.332753,,,0,,,1,
1158,1280,Martin Ross Ave at Brisbane Rd (West),,43.773686,-79.476268,,,0,,,2,
1159,4488,Milvan Dr at Millwick Dr (North),,43.760715,-79.566035,,,0,,,1,
1161,482,Bloor St East at Parliament St,,43.671775,-79.371544,,,0,,,1,
1162,3239,Yonge St at Queen St West - Queen Station,,43.65251,-79.379408,,,0,,,1,
1163,1152,Howard Park Ave at Parkside Dr East Side,,43.649054,-79.457419,,,0,,,2,
1164,1220,Lawrence Ave East at Bayview Ave,,43.727666,-79.383231,,,0,,,1,
1166,9783,Steeles Ave East at Ashcott St,,43.827008,-79.292081,,,0,,,1,
1167,190,Bathurst St at Reiner Rd,,43.752651,-79.437863,,,0,,,1,
1168,7913,Laurentide Dr at Larabee Cres,,43.752395,-79.336977,,,0,,,1,
1170,1511,Royal York Rd at Dundas St West,,43.657704,-79.515878,,,0,,,1,
1171,1173,Jane St at Steeles Ave West South Side,,43.774891,-79.521862,,,0,,,1,
1172,3512,Dundas St West at Old Dundas St West Side,,43.661895,-79.507489,,,0,,,2,
1173,1731,Bayview Ave at Soudan Ave,,43.708916,-79.376494,,,0,,,1,
1174,6647,Parliament St at Shuter St,,43.657021,-79.365124,,,0,,,1,
1175,6851,Queen St West at Shaw St,,43.64479,-79.416155,,,0,,,1,
1176,11926,Erindale Ave at Broadview Ave East Side,,43.67738,-79.358218,,,0,,,1,
1177,2567,Finch Ave East at Walkway East of Birchmount Rd,,43.799572,-79.303073,,,0,,,2,
1178,9323,Ray Ave at Bartonville Ave East,,43.689654,-79.493461,,,0,,,1,
1180,1229,Lawrence Ave East at Wanless Cres (East) West Side,,43.727816,-79.389722,,,0,,,1,
1181,5030,Dundas St West at Willard Ave East Side,,43.66554,-79.488063,,,0,,,1,
1183,4934,Culford Rd at Valencia Cres,,43.708164,-79.488549,,,0,,,1,
1184,13484,Burnhamthorpe Rd at Old Burnhamthorpe Rd (West),,43.640875,-79.581609,,,0,,,1,
1185,6543,Marlee Ave at Glengrove Ave North Side,,43.711157,-79.444575,,,0,,,1,
1186,5597,Martin Grove Rd at Belfield Rd,,43.701702,-79.575302,,,0,,,1,
1187,4592,Sheppard Ave East at Malvern St,,43.794789,-79.234821,,,0,,,1,
1188,1084,Gerrard St East at Carlaw Ave,,43.667717,-79.342605,,,0,,,1,
1189,2207,630 The East Mall,,43.656784,-79.566517,,,0,,,1,
1190,1845,Danforth Rd at Birchmount Rd,,43.706112,-79.268531,,,0,,,1,
1192,5226,Lansdowne Ave at Whytock Ave,,43.653917,-79.441232,,,0,,,1,
1193,6566,Meadowvale Rd at Ellesmere Rd,,43.792656,-79.163736,,,0,,,1,
1194,1988,The Donway West at Duncairn Rd North Side,,43.739947,-79.346237,,,0,,,1,
1196,8945,Yonge Blvd at Harley Ave,,43.738241,-79.41204,,,0,,,1,
1197,5453,Leslie St at Lawrence Ave East North Side,,43.735046,-79.355901,,,0,,,1,
1199,13345,4242 Dundas St West - Kingsway Mills Plaza,,43.659653,-79.513305,,,0,,,1,
1200,8929,Woodbine Ave at Plains Rd,,43.698422,-79.318408,,,0,,,1,
1201,12004,Hilda Ave at Steeles Ave West,,43.795595,-79.429004,,,0,,,1,
1202,9608,Grangeway Ave at Progress Ave South Side,,43.775976,-79.250532,,,0,,,1,
1203,9612,1148 Bellamy Rd North,,43.778161,-79.243197,,,0,,,1,
1205,2880,McNicoll Ave at Brahms Ave,,43.799614,-79.360212,,,0,,,2,
1206,2344,Eglinton Ave West at The East Mall,,43.672032,-79.571143,,,0,,,1,
1207,7194,Sheppard Ave East at Idagrove Gate,,43.807169,-79.175765,,,0,,,1,
1208,3266,Albion Rd at Highway 27,,43.744355,-79.607358,,,0,,,1,
1209,13680,Dynamic Dr at Turbina Ave North Side,,43.827116,-79.251922,,,0,,,1,
1211,3074,Queen St East at Sumach St,,43.656918,-79.358807,,,0,,,1,
1212,13447,Kipling Ave at Mattice Rd,,43.647035,-79.53777,,,0,,,1,
1214,4899,Coxwell Ave at O'Connor Dr,,43.697645,-79.329298,,,0,,,1,
1215,8963,Yonge St at William Carson Cres,,43.747206,-79.407246,,,0,,,1,
1216,495,Bloor St West at Bedford Rd,,43.667897,-79.39756,,,0,,,1,
1217,1656,Wilson Ave at Dufferin St West Side,,43.732143,-79.459421,,,0,,,1,
1218,6425,Huntingwood Dr at Belgreen Ave East Side,,43.79552,-79.290217,,,0,,,1,
1219,3206,Wright Ave at Jane St West Side,,43.700766,-79.503809,,,0,,,1,
1220,9404,Evans Ave at Cremorne Ave,,43.620658,-79.501613,,,0,,,1,
1221,5585,Markham Rd at Tuxedo Crt,,43.77944,-79.232752,,,0,,,1,
1222,1795,Coxwell Ave at Queen St East,,43.666692,-79.316748,,,0,,,1,
1223,8696,Weston Rd at Black Creek Dr North Side,,43.683549,-79.481081,,,0,,,1,
1224,12193,The Pond Rd at Ian MacDonald Blvd West Side,,43.77063,-79.499806,,,0,,,1,
1225,1828,Cummer Ave at Yonge St East Side,,43.787115,-79.416628,,,0,,,1,
1226,6803,Queen St East at Elmer Ave,,43.669336,-79.303443,,,0,,,1,
1227,4345,Kipling Ave at North Heights Rd North Side,,43.66527,-79.545439,,,0,,,1,
1228,7932,Lawson Rd at Meadowvale Rd West Side,,43.785289,-79.161088,,,0,,,1,
1229,14249,Warden Ave at Major Mackenzie Dr East South Side,,43.891406,-79.343171,,,0,,,2,
1230,8429,Victoria Park Ave at Amsterdam Ave South Side,,43.714867,-79.298659,,,0,,,2,
1231,6470,Island Rd at East Ave,,43.797941,-79.139236,,,0,,,2,
1232,11597,Centenary Hospital Loop at Neilson Rd,,43.78123,-79.204142,,,0,,,1,
1233,6008,Progress Ave at Opposite Roadway to Centennial College,,43.783468,-79.231974,,,0,,,1,
1235,3272,Albion Rd at Highway 27 East Side,,43.743938,-79.606313,,,0,,,1,
1236,4612,Spadina Rd at Kilbarry Rd,,43.692606,-79.414257,,,0,,,1,
1237,5023,Dundas St West at Prince Edward Dr North,,43.660474,-79.510565,,,0,,,2,
1238,1689,Ansford Ave at Faywood Blvd,,43.735741,-79.446837,,,0,,,1,
1240,9263,5010 Steeles Ave West,,43.759485,-79.593025,,,0,,,1,
1241,2756,Kennedy Rd at Kenmark Blvd,,43.729953,-79.26688,,,0,,,1,
1242,1154,Howard Park Ave at Roncesvalles Ave,,43.651426,-79.451175,,,0,,,2,
1243,5173,Lake Shore Blvd West at Burlington St,,43.617151,-79.487284,,,0,,,1,
1244,5334,Lawrence Ave West at Apex Rd,,43.713417,-79.458406,,,0,,,1,
1245,7673,441 Ellesmere Rd,,43.761781,-79.297639,,,0,,,1,
1246,3815,Islington Ave at Monogram Pl,,43.70478,-79.550106,,,0,,,2,
1248,7151,Sheppard Ave East at Bayview Ave - Bayview Station,,43.766885,-79.387704,,,0,,,1,
1249,704,Caledonia Rd at Bowie Ave,,43.695042,-79.462882,,,0,,,1,
1250,8560,Warden Ave at Ellesmere Rd,,43.760997,-79.300528,,,0,,,1,
1252,3687,Greenwood Ave at Torbrick Rd South Side,,43.675882,-79.330173,,,0,,,1,
1253,11053,Lundy Ave at Warren Cres,,43.662607,-79.502697,,,0,,,2,
1254,8286,Steeles Ave West at Jane St West Side,,43.775471,-79.522085,,,0,,,1,
1256,13681,145 Dynamic Dr,,43.828039,-79.252357,,,0,,,1,
1258,5347,Lawrence Ave West at Brookview Dr,,43.717875,-79.43526,,,0,,,1,
1259,5849,Newgale Gate at Finchdene Sq,,43.818861,-79.237676,,,0,,,1,
1260,3885,Jane St at Eddystone Ave,,43.749223,-79.515798,,,0,,,1,
1261,734,Caledonia Rd at Norman Ave,,43.677844,-79.455867,,,0,,,1,
1262,7219,Sheppard Ave East at Morningside Ave,,43.801751,-79.200009,,,0,,,1,
1263,4471,Markham Rd at Sheppard Ave East,,43.793604,-79.238418,,,0,,,1,
1264,2560,Finch Ave East at Tiffield Rd,,43.811034,-79.252622,,,0,,,1,
1265,4649,Symington Ave at Bloor St West,,43.657415,-79.447871,,,0,,,1,
1266,11556,430 Tapscott Rd,,43.809065,-79.23499,,,0,,,1,
1267,6927,Ranee Ave at Ameer Ave,,43.725147,-79.439662,,,0,,,1,
1268,9244,Shorncliffe Ave at Lockport Ave,,43.627616,-79.542736,,,0,,,1,
1269,441,Birchmount Rd at Sanwood Blvd,,43.816133,-79.314333,,,0,,,1,
1271,10528,Ellesmere Rd at Highland Creek Park,,43.788976,-79.178809,,,0,,,1,
1272,8003,Old Kingston Rd at Morrish Rd,,43.783097,-79.170854,,,0,,,1,
1273,3805,Islington Ave at Judson St,,43.613907,-79.508663,,,0,,,1,
1274,4978,Dixon Rd at Celestine Dr,,43.69358,-79.562351,,,0,,,1,
1275,621,Brimley Rd at Britwell Ave,,43.756125,-79.256188,,,0,,,2,
1277,5650,Martin Grove Rd at Tollington Rd,,43.686679,-79.56878,,,0,,,1,
1278,5230,Lawrence Ave East at Barrymore Rd,,43.754454,-79.251333,,,0,,,1,
1279,306,Bayview Ave at McKee Ave,,43.7779,-79.390444,,,0,,,1,
1281,850,595 Commissioners St,,43.655801,-79.327775,,,0,,,1,
1282,2564,Finch Ave East at Trudy Rd East Side,,43.790826,-79.36296,,,0,,,1,
1283,12162,Ellis Ave at Lake Shore Blvd West,,43.636779,-79.465781,,,0,,,1,
1284,3170,Westlake Ave at Lumsden Ave,,43.694512,-79.308371,,,0,,,1,
1285,8480,Victoria Park Ave at McNicoll Ave,,43.803897,-79.336067,,,0,,,1,
1286,11621,Millwood Rd at Randolph Rd,,43.703118,-79.363458,,,0,,,1,
1287,2046,Dufferin St at Ramsden Rd South Side,,43.695717,-79.450479,,,0,,,1,
1288,13434,Christie St at Barton Ave,,43.666475,-79.419496,,,0,,,1,
1291,3258,York Mills Rd at Fenn Ave,,43.747131,-79.388881,,,0,,,1,
1292,2977,46 Overlea Blvd,,43.706973,-79.34627,,,0,,,1,
1293,2217,The East Mall at Rathburn Rd,,43.655161,-79.564454,,,0,,,1,
1295,4591,Sheppard Ave East at Progress Ave,,43.794491,-79.235159,,,0,,,1,
1296,2115,Dundas St East at Broadview Ave,,43.662249,-79.351814,,,0,,,2,
1299,11157,95 Commander Blvd,,43.793527,-79.266658,,,0,,,2,
1300,5663,McCowan Rd at Brimorton Dr,,43.765254,-79.248748,,,0,,,1,
1301,11789,The Queensway at Ellis Ave West Side,,43.637819,-79.466978,,,0,,,1,
1302,3406,Chaplin Cres at Avenue Rd East Side,,43.698503,-79.405551,,,0,,,1,
1303,12352,501 Consumers Rd,,43.770613,-79.327515,,,0,,,1,
1304,2065,Dufferin St at Rowan Ave,,43.692029,-79.448632,,,0,,,1,
1305,102,Bathurst St at Caribou Rd,,43.71753,-79.429252,,,0,,,1,
1306,7495,Arrow Rd at Deerhide Cres (South),,43.747641,-79.530249,,,0,,,1,
1307,3979,Keele St at Donald Ave,,43.684989,-79.47293,,,0,,,1,
1308,9303,Attwell Dr at Farnboro Rd,,43.691339,-79.587417,,,0,,,1,
1309,8085,Sentinel Rd at Grandravine Dr,,43.751718,-79.495975,,,0,,,1,
1310,7566,Brookbanks Dr at Valley Woods Rd,,43.752164,-79.331971,,,0,,,1,
1311,1195,Jones Ave at Shudell Ave,,43.675036,-79.337976,,,0,,,1,
1312,5640,Martin Grove Rd at Richgrove Dr,,43.676926,-79.564426,,,0,,,1,
1314,4628,St Clair Ave East at North Woodrow Blvd,,43.715113,-79.266834,,,0,,,2,
1315,3675,Greenwood Ave at Felstead Ave,,43.677719,-79.330707,,,0,,,1,
1316,8578,Warden Ave at Ionson Blvd,,43.690728,-79.272214,,,0,,,1,
1317,5294,Lawrence Ave East at Midland Ave East Side,,43.751579,-79.264207,,,0,,,1,
1318,5576,Markham Rd at Painted Post Dr,,43.767395,-79.228128,,,0,,,1,
1319,10542,Warden Ave at Enterprise Blvd,,43.848285,-79.331592,,,0,,,1,
1320,6036,Rogers Rd at Oakwood Ave West Side,,43.687044,-79.439442,,,0,,,1,
1321,3768,Islington Ave at Bergamot Ave,,43.717119,-79.556195,,,0,,,1,
1322,7391,Van Horne Ave at Kingslake Rd,,43.786639,-79.345567,,,0,,,1,
1323,5253,2216 Lawrence Ave East,,43.748715,-79.279522,,,0,,,1,
1324,4507,Old Weston Rd at Lavender Rd,,43.680671,-79.466636,,,0,,,1,
1325,2022,Dufferin St at Brandon Ave,,43.670324,-79.439719,,,0,,,1,
1326,1617,Village Gate at Steeles Ave West,,43.792558,-79.440731,,,0,,,1,
1327,4780,Avenue Rd at Glengrove Ave West,,43.717016,-79.41366,,,0,,,1,
1328,8027,Parkwoods Village Dr at Combermere Dr,,43.758032,-79.319424,,,0,,,1,
1329,910,Danforth Ave at Sibley Ave,,43.690091,-79.292815,,,0,,,1,
1330,8234,Steeles Ave East at Pharmacy Ave,,43.816625,-79.336828,,,0,,,1,
1331,5190,Lake Shore Blvd West at Louisa St,,43.619048,-79.486446,,,0,,,1,
1332,2071,Dufferin St at Liberty St,,43.636946,-79.426505,,,0,,,1,
1333,14328,Albion Rd at Todd Brook Dr East Side,,43.738097,-79.571253,,,0,,,1,
1334,14329,741 Ellesmere Rd at Mondeo Dr,,43.764459,-79.287449,,,0,,,1,
1335,14331,Park Lawn Rd at Lorne Ave,,43.630729,-79.490963,,,0,,,1,
1336,14334,St Clair Ave West at Vaughan Rd West Side,,43.682656,-79.420844,,,0,,,1,
1337,14335,St Clair Ave West at Vaughan Rd East Side,,43.682875,-79.419348,,,0,,,1,
1338,14336,St Clair Ave West at Bathurst St East Side,,43.683213,-79.417671,,,0,,,1,
1339,14337,St Clair Ave West at Bathurst St West Side,,43.683061,-79.418852,,,0,,,1,
1341,14339,Markham Rd at Bur Oak Ave - Mount Joy GO Station,,43.900026,-79.265771,,,0,,,1,
1342,14341,Dupont St at Howland Ave,,43.673765,-79.411699,,,0,,,1,
1343,14343,St Clair Ave West at Tweedsmuir Ave,,43.684084,-79.413336,,,0,,,1,
1344,14344,St Clair Ave West at Spadina Rd East Side,,43.684699,-79.410569,,,0,,,2,
1345,14345,St Clair Ave West at Yonge St West Side,,43.688014,-79.394607,,,0,,,2,
1347,9075,York Mills Rd at Laurentide Dr,,43.757636,-79.338064,,,0,,,1,
1348,6219,Albion Rd at Bankfield Dr,,43.730649,-79.554146,,,0,,,1,
1349,11781,Parkside Dr at Indian Valley Cres South Side,,43.650881,-79.458497,,,0,,,1,
1350,3057,Queen St East at Leslie St,,43.66333,-79.330109,,,0,,,1,
1351,14271,Victoria Park Ave at Rowena Dr,,43.751403,-79.312873,,,0,,,1,
1352,2311,Eglinton Ave East at Sloane Ave,,43.726134,-79.313172,,,0,,,1,
1353,8668,The West Mall at Bloor St West,,43.63574,-79.562491,,,0,,,1,
1354,13446,Islington Ave at Bering Ave,,43.639459,-79.521343,,,0,,,1,
1356,1752,The Bridle Path at Suncrest Dr,,43.726432,-79.360313,,,0,,,1,
1357,1037,Eglinton Ave East at Midland Ave,,43.734195,-79.259166,,,0,,,1,
1358,747,Caledonia Rd at Summit Ave,,43.686657,-79.459454,,,0,,,2,
1359,11840,Kingston Rd at Blantyre Ave,,43.681329,-79.281449,,,0,,,1,
1360,123,Bathurst St at Antibes Dr,,43.781233,-79.445042,,,0,,,1,
1361,2107,Dufferin St at Wilson Ave South Side,,43.731126,-79.458778,,,0,,,1,
1362,3923,Jane St at Shoreham Dr,,43.76892,-79.520536,,,0,,,1,
1363,8296,3600 Steeles Ave West,,43.77211,-79.538315,,,0,,,1,
1364,8961,Yonge St at Broadway Ave,,43.709449,-79.39881,,,0,,,1,
1365,11,Anglesey Blvd at Islington Ave,,43.664493,-79.531543,,,0,,,1,
1366,11099,Brimorton Dr at Mid Pines Rd,,43.771113,-79.211966,,,0,,,1,
1367,14280,The Queensway at Colborne Lodge Dr East Side,,43.639566,-79.458635,,,0,,,1,
1368,4209,Kingston Rd at Blantyre Ave,,43.681534,-79.281335,,,0,,,1,
1369,8345,44 Thorncliffe Park Dr,,43.702448,-79.342715,,,0,,,1,
1371,6337,Crescent Rd at South Dr (West),,43.678533,-79.382497,,,0,,,1,
1374,4614,Spadina Rd at Lonsdale Rd,,43.688713,-79.412799,,,0,,,1,
1375,7888,Keele St at Glenlake Ave,,43.658146,-79.461353,,,0,,,2,
1377,8701,3689 Weston Rd,,43.762893,-79.544763,,,0,,,1,
1378,6283,Cactus Ave at Pleasant Ave,,43.789617,-79.433211,,,0,,,1,
1379,829,College St at Elizabeth St,,43.660618,-79.387271,,,0,,,2,
1380,4052,Keele St at Wycombe Rd,,43.742981,-79.48611,,,0,,,1,
1382,3522,Dundas St West at Scarlett Rd,,43.665631,-79.499107,,,0,,,2,
1383,237,Bay St at Charles St West,,43.668073,-79.388671,,,0,,,1,
1384,2761,Kennedy Rd at Mewburn Ave,,43.707785,-79.258005,,,0,,,1,
1385,1616,University Ave at Gerrard St West,,43.65763,-79.389768,,,0,,,1,
1386,9096,Whitehorse Rd at Steeprock Dr,,43.758263,-79.472177,,,0,,,1,
1387,7580,Carlingview Dr at Fasken Dr South Side,,43.691115,-79.597649,,,0,,,1,
1388,2999,Pape Ave at Mortimer Ave,,43.685674,-79.347319,,,0,,,1,
1389,8661,244 The West Mall,,43.631997,-79.560393,,,0,,,2,
1390,5626,Martin Grove Rd at Longbourne Dr,,43.680944,-79.566235,,,0,,,1,
1391,389,Birchmount Rd at Carncastle Gate,,43.777111,-79.296393,,,0,,,1,
1392,5107,Gary Dr at Wendell Ave,,43.709789,-79.524233,,,0,,,1,
1393,2070,Dufferin St at Lawrence Ave West,,43.714241,-79.454916,,,0,,,1,
1394,64,Avenue Rd at Edmund Ave,,43.682605,-79.399936,,,0,,,1,
1395,6395,Foxwell St at Jane St West Side,,43.671537,-79.494259,,,0,,,2,
1396,2076,Dufferin St at Orfus Rd,,43.720554,-79.456276,,,0,,,1,
1397,6190,The Westway at Islington Ave,,43.688461,-79.543101,,,0,,,1,
1399,7084,Scarlett Rd at Edenbridge Dr North Side,,43.681165,-79.508941,,,0,,,2,
1400,5384,Lawrence Ave West at Kimbark Blvd,,43.721572,-79.41848,,,0,,,1,
1401,6888,The Queensway at Glendale Ave East Side - St Joseph's Health,,43.639168,-79.450773,,,0,,,1,
1402,9053,Yonge St at St Clair Ave West - St Clair Station,,43.688281,-79.394275,,,0,,,1,
1403,2749,Kennedy Rd at Craiglee Dr,,43.705838,-79.257183,,,0,,,1,
1404,3476,Deauville Lane at St Dennis Dr,,43.71805,-79.331096,,,0,,,1,
1405,701,Caledonia Rd at Bentworth Ave,,43.719375,-79.468437,,,0,,,1,
1406,6286,Carlaw Ave at Commissioners St,,43.652706,-79.335714,,,0,,,1,
1407,2445,Evans Ave at Horner Ave,,43.617136,-79.518641,,,0,,,1,
1408,7986,Moore Ave at Brendan Rd,,43.695491,-79.378399,,,0,,,2,
1409,7688,1299 Ellesmere Rd,,43.769344,-79.264176,,,0,,,1,
1410,581,Bloor St West at Shaver Ave South East Side,,43.638962,-79.547422,,,0,,,1,
1411,1966,Don Mills Rd at Premier Davis Blvd - Seneca College,,43.796264,-79.355054,,,0,,,1,
1414,3332,Belfield Rd at City View Dr East Side,,43.699535,-79.585375,,,0,,,1,
1415,7255,Sheppard Ave East at Warden Ave,,43.778938,-79.307608,,,0,,,1,
1416,2093,Dufferin St at St Clair Ave West,,43.677768,-79.442907,,,0,,,1,
1417,967,Donlands Ave at O'Connor Dr South Side,,43.694244,-79.343044,,,0,,,1,
1418,3678,Greenwood Ave at Gerrard St East,,43.671002,-79.328133,,,0,,,1,
1419,2531,Finch Ave East at Walkway to Huntingdale Blvd,,43.795052,-79.323292,,,0,,,1,
1420,3778,Islington Ave at Dixon Rd,,43.697254,-79.546973,,,0,,,1,
1421,5870,Oak St at Roadway to Piggott Mews,,43.708296,-79.530743,,,0,,,1,
1422,8570,Warden Ave at Glen Springs Dr,,43.80467,-79.320349,,,0,,,1,
1423,9210,Arleta Ave at Sheppard Ave West North Side,,43.74196,-79.501534,,,0,,,1,
1424,12138,Warden Ave at Roper Rd (North Commuter Parking Lot),,43.713879,-79.281661,,,0,,,1,
1425,8028,Parkwoods Village Dr at Gailong Crt,,43.759388,-79.321096,,,0,,,1,
1426,3941,Jane St at Wilson Ave South Side,,43.720429,-79.508641,,,0,,,1,
1428,12046,Hilda Ave at Green Bush Rd,,43.794365,-79.428403,,,0,,,1,
1429,55,Avenue Rd at Cottingham St South Side,,43.679979,-79.398865,,,0,,,1,
1430,4664,Opposite 430 Tapscott Rd - Walkway to Tunmead Square,,43.80948,-79.23493,,,0,,,1,
1431,11596,King St West at Queen St West,,43.638535,-79.445759,,,0,,,2,
1432,8181,St Clair Ave West at Russell Hill Rd East Side,,43.685403,-79.407321,,,0,,,2,
1433,8767,Weston Rd at Sheppard Ave West,,43.733887,-79.53842,,,0,,,1,
1434,10810,1811 Albion Rd,,43.744939,-79.611856,,,0,,,1,
1435,4811,Brentcliffe Rd at Vanderhoof Ave,,43.712925,-79.359157,,,0,,,2,
1436,1800,Coxwell Ave at Gerrard St East,,43.675096,-79.320091,,,0,,,1,
1437,1221,Lawrence Ave East at Cardinal Pl,,43.725917,-79.398686,,,0,,,2,
1439,2439,Evans Ave at Eastwick Rd,,43.617617,-79.515524,,,0,,,1,
1440,3219,Yonge St at Crescent Rd - Rosedale Station,,43.676823,-79.38938,,,0,,,1,
1441,1096,Gerrard St East at Logan Ave,,43.666983,-79.345317,,,0,,,2,
1442,1032,Eglinton Ave East at Falmouth Ave,,43.735453,-79.253308,,,0,,,1,
1443,968,Donlands Ave at O'Connor Dr,,43.694547,-79.342941,,,0,,,1,
1444,9040,Yonge St at Rosehill Ave,,43.686132,-79.393183,,,0,,,1,
1445,3845,Islington Ave at Summitcrest Dr,,43.683125,-79.54029,,,0,,,1,
1446,5382,Lawrence Ave West at Keele St,,43.709011,-79.477644,,,0,,,1,
1447,1108,Gerrard St East at St Matthews Rd,,43.664927,-79.35489,,,0,,,2,
1448,8475,Victoria Park Ave at Lawrence Ave East,,43.741755,-79.309523,,,0,,,1,
1449,9256,Thirtieth St at Horner Ave,,43.604096,-79.533531,,,0,,,1,
1450,9511,North Queen St at Atomic Ave,,43.622082,-79.542704,,,0,,,1,
1451,5828,Mt Pleasant Rd at Lawrence Ave East,,43.726716,-79.396602,,,0,,,1,
1452,13344,King St West at Sudbury St,,43.640853,-79.417479,,,0,,,1,
1453,1149,Howard Park Ave at Dundas St West,,43.651965,-79.448329,,,0,,,2,
1454,6563,McNicoll Ave at Middlefield Rd,,43.820586,-79.260854,,,0,,,1,
1457,3673,Greenwood Ave at Dundas St East,,43.667455,-79.326459,,,0,,,2,
1459,11534,Silverdale Cres at York Mills Rd South Side,,43.756605,-79.341245,,,0,,,1,
1460,1208,Kennedy Rd at Malta St North Side,,43.704334,-79.256416,,,0,,,1,
1461,8315,Steeles Ave West at Weston Rd,,43.770086,-79.546903,,,0,,,1,
1462,9656,Opposite 185 Graydon Hall Dr,,43.764325,-79.342106,,,0,,,1,
1463,4984,626 Dixon Rd,,43.690925,-79.574582,,,0,,,1,
1464,538,Bloor St West at Manning Ave,,43.663979,-79.416138,,,0,,,1,
1465,11551,Finchdene Sq at Pullman Crt,,43.820512,-79.23776,,,0,,,1,
1466,6650,Parliament St at Gerrard St East,,43.662405,-79.367314,,,0,,,1,
1467,2739,4359 Jane St,,43.764049,-79.519111,,,0,,,1,
1468,2173,Dundas St West at McCaul St,,43.654219,-79.391552,,,0,,,2,
1469,6874,The Queensway at Brawley Ave,,43.622221,-79.521619,,,0,,,1,
1471,11295,Humberwood Blvd at Kingsplate Cres,,43.723814,-79.616068,,,0,,,1,
1472,9599,Nugget Ave at Transfer Pl,,43.798094,-79.244177,,,0,,,1,
1474,5916,Oakwood Ave at St Clair Ave West,,43.679864,-79.435844,,,0,,,1,
1475,6778,Prince Edward Dr South at Glenroy Ave,,43.643687,-79.503444,,,0,,,1,
1477,1683,Albion Rd at Kipling Ave,,43.739768,-79.580072,,,0,,,1,
1478,5785,Mortimer Ave at Knight St,,43.691012,-79.32416,,,0,,,2,
1479,10749,Milner Ave at Markham Rd,,43.789771,-79.236769,,,0,,,1,
1481,1026,Dupont St at Shaw St,,43.670664,-79.426478,,,0,,,1,
1482,7649,Dufferin St at Dolomite Dr,,43.781047,-79.46999,,,0,,,1,
1483,2777,Kingston Rd at Elmer Ave,,43.67582,-79.305884,,,0,,,1,
1484,10037,3447 Kennedy Rd,,43.821059,-79.305678,,,0,,,1,
1485,5388,Lawrence Ave West at Lorindale Ave,,43.724924,-79.403462,,,0,,,1,
1486,6694,Pharmacy Ave at Dolphin Dr,,43.700196,-79.286863,,,0,,,1,
1487,397,Birchmount Rd at Crouse Rd,,43.740666,-79.281944,,,0,,,1,
1488,3942,Jane St at Woolner Ave,,43.671522,-79.493576,,,0,,,1,
1489,13376,Washburn Way at Nahanni Ter South Side,,43.802358,-79.224717,,,0,,,1,
1490,4966,Danforth Rd at Tansley Ave South Side,,43.746116,-79.244702,,,0,,,1,
1491,8428,Victoria Park Ave at Altair Ave North Side,,43.78448,-79.327193,,,0,,,1,
1492,2436,Evans Ave at The East Mall,,43.611724,-79.543977,,,0,,,1,
1493,3041,Queen St East at Church St,,43.653269,-79.37552,,,0,,,1,
1494,9172,Birchmount Rd at Riseborough Circt (North),,43.826823,-79.317703,,,0,,,1,
1495,7887,Keele St at Dundas St West South Side,,43.665088,-79.464501,,,0,,,1,
1496,8740,Weston Rd at Lambton Ave,,43.684215,-79.483795,,,0,,,1,
1497,7447,Weston Rd at York Ave,,43.68587,-79.487531,,,0,,,1,
1498,6797,Pritchard Ave at Jane St,,43.669628,-79.492607,,,0,,,2,
1500,4719,Wynford Dr at Concorde Pl West Side,,43.727267,-79.328478,,,0,,,1,
1502,2795,Kingston Rd at Scarborough Rd,,43.680614,-79.287061,,,0,,,1,
1503,5116,Hambly Ave at Williamson Rd,,43.673686,-79.29808,,,0,,,2,
1504,4913,Coxwell Ave at Sammon Ave,,43.688879,-79.325993,,,0,,,1,
1505,4915,Coxwell Ave at Springdale Blvd,,43.687416,-79.325385,,,0,,,1,
1506,2751,Kennedy Rd at Danforth Rd,,43.714994,-79.261065,,,0,,,1,
1507,1265,Maniza Rd at Gilley Rd,,43.735734,-79.464573,,,0,,,1,
1508,2119,Dundas St East at Jarvis St,,43.657162,-79.374377,,,0,,,2,
1509,8960,Yonge St at Briar Hill Ave,,43.713729,-79.399948,,,0,,,1,
1510,5552,Markham Rd at Blakemanor Blvd,,43.750967,-79.22208,,,0,,,1,
1512,7797,Grandravine Dr at Derrydown Rd,,43.753035,-79.491497,,,0,,,1,
1513,5325,Lawrence Ave East at Underwriters Rd,,43.746625,-79.288269,,,0,,,1,
1514,4895,Commissioners St at Logan Ave,,43.65142,-79.337972,,,0,,,1,
1515,6260,Berry Rd at Minstrel Dr,,43.635106,-79.497939,,,0,,,1,
1516,5437,Leslie St at Dexter Blvd South Side,,43.799373,-79.370328,,,0,,,1,
1517,8816,Willowdale Ave at Otonabee Ave,,43.795867,-79.412905,,,0,,,2,
1518,604,100 Bridgeland Ave,,43.726123,-79.461155,,,0,,,1,
1519,6847,Queen St West at Ossington Ave,,43.644283,-79.41869,,,0,,,1,
1520,9811,McCowan Rd at Steeles Ave East,,43.831169,-79.275424,,,0,,,1,
1521,6157,Waterbury Dr at Clarion Rd,,43.685022,-79.571152,,,0,,,1,
1522,1483,Rathburn Rd at Islington Ave,,43.662151,-79.53199,,,0,,,1,
1523,1645,William R Allen Rd at Overbrook Pl,,43.760867,-79.464927,,,0,,,1,
1525,719,Caledonia Rd at Glengrove Ave,,43.706301,-79.465166,,,0,,,1,
1526,2034,Dufferin St at College St,,43.652658,-79.432661,,,0,,,1,
1527,3804,Islington Ave at Judson St North Side,,43.614039,-79.508392,,,0,,,2,
1528,4401,Lansdowne Ave at Dupont St,,43.666612,-79.446297,,,0,,,1,
1530,3976,Keele St at Diana Dr South Side,,43.740824,-79.48559,,,0,,,2,
1531,3609,Opposite 625 Finch Ave West,,43.771704,-79.454303,,,0,,,1,
1532,2328,Eglinton Ave West at Bemersyde Dr,,43.678401,-79.545008,,,0,,,1,
1533,481,Bloor St East at Jarvis St,,43.671464,-79.38077,,,0,,,1,
1534,14310,McCowan Rd at Southdale Dr South Side,,43.86503,-79.284087,,,0,,,1,
1535,6846,Queen St West at Ossington Ave,,43.64406,-79.418976,,,0,,,1,
1536,5495,Lloyd Manor Rd at Beaverbrook Ave,,43.661742,-79.547757,,,0,,,1,
1537,9466,Cosburn Ave at Linsmore Cres,,43.69285,-79.334238,,,0,,,1,
1538,5873,Oak St at Weston Rd,,43.708091,-79.532566,,,0,,,2,
1539,7585,Opposite 215 Carlingview Dr,,43.683178,-79.594033,,,0,,,2,
1540,1348,Mill Rd at Toledo Rd,,43.634066,-79.57709,,,0,,,1,
1541,978,4610 Dufferin St,,43.77216,-79.467924,,,0,,,1,
1542,3790,Islington Ave at Fenley Dr South Side,,43.692803,-79.544904,,,0,,,2,
1544,4468,Markham Rd at Milner Ave,,43.789364,-79.236737,,,0,,,1,
1545,4637,St Regis Cres North at Ceramic Rd East Side,,43.756479,-79.483595,,,0,,,1,
1546,9153,3400 Keele St,,43.747616,-79.487209,,,0,,,1,
1547,6393,Foxwell St at Duern St,,43.670893,-79.495862,,,0,,,1,
1548,2078,Dufferin St at Playfair Ave,,43.710983,-79.454179,,,0,,,1,
1549,9642,Brimley Rd at Lombardy Cres,,43.731931,-79.246177,,,0,,,1,
1551,2568,Finch Ave East at Opposite Walkway East of Birchmount Rd,,43.799792,-79.303031,,,0,,,1,
1552,778,Christie St at Yarmouth Rd North Side,,43.670279,-79.420936,,,0,,,1,
1553,8283,Steeles Ave West at Islington Ave,,43.764537,-79.574602,,,0,,,1,
1554,3340,Belfield Rd at McCulloch Ave West Side,,43.702639,-79.573099,,,0,,,1,
1555,3385,Brown's Line at Jellicoe Ave South Side,,43.596288,-79.542878,,,0,,,1,
1557,8538,Warden Ave at Bowater Dr North Side,,43.781056,-79.308879,,,0,,,1,
1558,9513,Sheppard Ave East at Victoria Park Ave West Side,,43.775213,-79.323709,,,0,,,1,
1560,1025,Dupont St at Shaw St,,43.670463,-79.426696,,,0,,,1,
1561,11783,Parkside Dr at Geoffrey St,,43.646725,-79.457071,,,0,,,2,
1562,12176,Dufferin St at Finch Ave West South Side,,43.76823,-79.466957,,,0,,,1,
1563,3216,Yonge St at Charles St East,,43.668556,-79.385974,,,0,,,1,
1564,8213,Steeles Ave East at Bestview Dr,,43.80629,-79.383217,,,0,,,1,
1565,2330,Eglinton Ave West at Municipal Dr - York Civic Centre,,43.689751,-79.477026,,,0,,,1,
1566,5279,Lawrence Ave East at Kennedy Rd East Side,,43.74948,-79.274276,,,0,,,1,
1567,3887,Jane St at Eglinton Ave West South Side,,43.68404,-79.498872,,,0,,,1,
1568,6753,Pharmacy Ave at Steeles Ave East South Side,,43.81629,-79.336392,,,0,,,1,
1569,1155,Howard Park Ave at Roncesvalles Ave,,43.651592,-79.45081,,,0,,,2,
1570,732,Caledonia Rd at Leswyn Rd,,43.7159,-79.467783,,,0,,,1,
1573,14187,Warden Ave at Frey Cres,,43.74345,-79.293834,,,0,,,1,
1574,609,227 Bridgeland Ave,,43.724537,-79.467678,,,0,,,1,
1575,6159,Waterbury Dr at Redgrave Dr North Side,,43.683214,-79.569859,,,0,,,1,
1576,13901,Sheppard Ave East at Walkway to Murison Blvd,,43.801068,-79.203406,,,0,,,2,
1578,3964,Keele St at Calvington Dr South Side,,43.733145,-79.483707,,,0,,,1,
1579,1805,Cummer Ave at Conacher Dr,,43.791392,-79.397163,,,0,,,1,
1580,6806,Queen St East at Kingston Rd,,43.667398,-79.312136,,,0,,,1,
1581,8534,Warden Ave at Bertrand Ave,,43.732909,-79.28951,,,0,,,1,
1582,2970,1415 Morningside Ave,,43.810785,-79.203418,,,0,,,1,
1583,598,Bloor St West at Windermere Ave,,43.65008,-79.480567,,,0,,,1,
1584,9551,150 Murison Blvd,,43.800154,-79.204657,,,0,,,1,
1585,5193,Lake Shore Blvd West at Mimico Ave,,43.613855,-79.489387,,,0,,,1,
1586,4815,Brimley Rd at Brimley Woods Park,,43.80931,-79.278836,,,0,,,1,
1587,584,Bloor St West at Shaw St,,43.662583,-79.423134,,,0,,,1,
1588,5492,Leslie St at York Mills Rd,,43.75271,-79.359741,,,0,,,1,
1589,2540,Finch Ave East at Pineway Blvd,,43.789319,-79.373112,,,0,,,1,
1591,11344,5373 Finch Ave East,,43.811225,-79.250996,,,0,,,1,
1592,7690,Ellesmere Rd at Dewey Dr,,43.76023,-79.304551,,,0,,,1,
